[{"code":"130102","name":"","fullName":"长安区","lat":"38.03647","lng":"114.53952","provinceCode":"130000","cityCode":"130100"},{"code":"130104","name":"","fullName":"桥西区","lat":"38.00407","lng":"114.46104","provinceCode":"130000","cityCode":"130100"},{"code":"130105","name":"","fullName":"新华区","lat":"38.0509","lng":"114.46312","provinceCode":"130000","cityCode":"130100"},{"code":"130107","name":"","fullName":"井陉矿区","lat":"38.06499","lng":"114.0623","provinceCode":"130000","cityCode":"130100"},{"code":"130108","name":"","fullName":"裕华区","lat":"38.0061","lng":"114.53122","provinceCode":"130000","cityCode":"130100"},{"code":"130109","name":"","fullName":"藁城区","lat":"38.02166","lng":"114.84676","provinceCode":"130000","cityCode":"130100"},{"code":"130110","name":"","fullName":"鹿泉区","lat":"38.08587","lng":"114.31344","provinceCode":"130000","cityCode":"130100"},{"code":"130111","name":"","fullName":"栾城区","lat":"37.90025","lng":"114.64839","provinceCode":"130000","cityCode":"130100"},{"code":"130121","name":"","fullName":"井陉县","lat":"38.03225","lng":"114.14532","provinceCode":"130000","cityCode":"130100"},{"code":"130123","name":"","fullName":"正定县","lat":"38.14619","lng":"114.57109","provinceCode":"130000","cityCode":"130100"},{"code":"130125","name":"","fullName":"行唐县","lat":"38.43848","lng":"114.55294","provinceCode":"130000","cityCode":"130100"},{"code":"130126","name":"","fullName":"灵寿县","lat":"38.30864","lng":"114.38265","provinceCode":"130000","cityCode":"130100"},{"code":"130127","name":"","fullName":"高邑县","lat":"37.61493","lng":"114.61148","provinceCode":"130000","cityCode":"130100"},{"code":"130128","name":"","fullName":"深泽县","lat":"38.18417","lng":"115.20094","provinceCode":"130000","cityCode":"130100"},{"code":"130129","name":"","fullName":"赞皇县","lat":"37.66579","lng":"114.38592","provinceCode":"130000","cityCode":"130100"},{"code":"130130","name":"","fullName":"无极县","lat":"38.17915","lng":"114.97638","provinceCode":"130000","cityCode":"130100"},{"code":"130131","name":"","fullName":"平山县","lat":"38.25998","lng":"114.18605","provinceCode":"130000","cityCode":"130100"},{"code":"130132","name":"","fullName":"元氏县","lat":"37.76646","lng":"114.52547","provinceCode":"130000","cityCode":"130100"},{"code":"130133","name":"","fullName":"赵县","lat":"37.75631","lng":"114.77616","provinceCode":"130000","cityCode":"130100"},{"code":"130181","name":"","fullName":"辛集市","lat":"37.94316","lng":"115.21792","provinceCode":"130000","cityCode":"130100"},{"code":"130183","name":"","fullName":"晋州市","lat":"38.03356","lng":"115.0441","provinceCode":"130000","cityCode":"130100"},{"code":"130184","name":"","fullName":"新乐市","lat":"38.34338","lng":"114.68384","provinceCode":"130000","cityCode":"130100"},{"code":"130202","name":"","fullName":"路南区","lat":"39.62509","lng":"118.15437","provinceCode":"130000","cityCode":"130200"},{"code":"130203","name":"","fullName":"路北区","lat":"39.62434","lng":"118.20074","provinceCode":"130000","cityCode":"130200"},{"code":"130204","name":"","fullName":"古冶区","lat":"39.71612","lng":"118.45885","provinceCode":"130000","cityCode":"130200"},{"code":"130205","name":"","fullName":"开平区","lat":"39.67098","lng":"118.26198","provinceCode":"130000","cityCode":"130200"},{"code":"130207","name":"","fullName":"丰南区","lat":"39.57487","lng":"118.08505","provinceCode":"130000","cityCode":"130200"},{"code":"130208","name":"","fullName":"丰润区","lat":"39.83249","lng":"118.16217","provinceCode":"130000","cityCode":"130200"},{"code":"130209","name":"","fullName":"曹妃甸区","lat":"39.27313","lng":"118.46023","provinceCode":"130000","cityCode":"130200"},{"code":"130224","name":"","fullName":"滦南县","lat":"39.50394","lng":"118.67414","provinceCode":"130000","cityCode":"130200"},{"code":"130225","name":"","fullName":"乐亭县","lat":"39.42564","lng":"118.91252","provinceCode":"130000","cityCode":"130200"},{"code":"130227","name":"","fullName":"迁西县","lat":"40.14153","lng":"118.3146","provinceCode":"130000","cityCode":"130200"},{"code":"130229","name":"","fullName":"玉田县","lat":"39.9005","lng":"117.73881","provinceCode":"130000","cityCode":"130200"},{"code":"130230","name":"","fullName":"芦台区","lat":"39.38091","lng":"117.74757","provinceCode":"130000","cityCode":"130200"},{"code":"130281","name":"","fullName":"遵化市","lat":"40.18924","lng":"117.96567","provinceCode":"130000","cityCode":"130200"},{"code":"130283","name":"","fullName":"迁安市","lat":"39.99836","lng":"118.70073","provinceCode":"130000","cityCode":"130200"},{"code":"130284","name":"","fullName":"滦州市","lat":"39.74058","lng":"118.70351","provinceCode":"130000","cityCode":"130200"},{"code":"130302","name":"","fullName":"海港区","lat":"39.9345","lng":"119.61063","provinceCode":"130000","cityCode":"130300"},{"code":"130303","name":"","fullName":"山海关区","lat":"39.97892","lng":"119.77606","provinceCode":"130000","cityCode":"130300"},{"code":"130304","name":"","fullName":"北戴河区","lat":"39.83507","lng":"119.48458","provinceCode":"130000","cityCode":"130300"},{"code":"130306","name":"","fullName":"抚宁区","lat":"39.87634","lng":"119.24444","provinceCode":"130000","cityCode":"130300"},{"code":"130321","name":"","fullName":"青龙满族自治县","lat":"40.40692","lng":"118.95012","provinceCode":"130000","cityCode":"130300"},{"code":"130322","name":"","fullName":"昌黎县","lat":"39.71284","lng":"119.16288","provinceCode":"130000","cityCode":"130300"},{"code":"130324","name":"","fullName":"卢龙县","lat":"39.8918","lng":"118.89294","provinceCode":"130000","cityCode":"130300"},{"code":"130402","name":"","fullName":"邯山区","lat":"36.6","lng":"114.48376","provinceCode":"130000","cityCode":"130400"},{"code":"130403","name":"","fullName":"丛台区","lat":"36.61853","lng":"114.49339","provinceCode":"130000","cityCode":"130400"},{"code":"130404","name":"","fullName":"复兴区","lat":"36.61693","lng":"114.47309","provinceCode":"130000","cityCode":"130400"},{"code":"130406","name":"","fullName":"峰峰矿区","lat":"36.41968","lng":"114.21302","provinceCode":"130000","cityCode":"130400"},{"code":"130407","name":"","fullName":"肥乡区","lat":"36.54811","lng":"114.80002","provinceCode":"130000","cityCode":"130400"},{"code":"130408","name":"","fullName":"永年区","lat":"36.77771","lng":"114.49095","provinceCode":"130000","cityCode":"130400"},{"code":"130423","name":"","fullName":"临漳县","lat":"36.3348","lng":"114.61968","provinceCode":"130000","cityCode":"130400"},{"code":"130424","name":"","fullName":"成安县","lat":"36.44414","lng":"114.66999","provinceCode":"130000","cityCode":"130400"},{"code":"130425","name":"","fullName":"大名县","lat":"36.28558","lng":"115.14788","provinceCode":"130000","cityCode":"130400"},{"code":"130426","name":"","fullName":"涉县","lat":"36.58544","lng":"113.69065","provinceCode":"130000","cityCode":"130400"},{"code":"130427","name":"","fullName":"磁县","lat":"36.37396","lng":"114.37392","provinceCode":"130000","cityCode":"130400"},{"code":"130430","name":"","fullName":"邱县","lat":"36.81987","lng":"115.17641","provinceCode":"130000","cityCode":"130400"},{"code":"130431","name":"","fullName":"鸡泽县","lat":"36.92031","lng":"114.8782","provinceCode":"130000","cityCode":"130400"},{"code":"130432","name":"","fullName":"广平县","lat":"36.48345","lng":"114.9485","provinceCode":"130000","cityCode":"130400"},{"code":"130433","name":"","fullName":"馆陶县","lat":"36.53529","lng":"115.30629","provinceCode":"130000","cityCode":"130400"},{"code":"130434","name":"","fullName":"魏县","lat":"36.35991","lng":"114.93882","provinceCode":"130000","cityCode":"130400"},{"code":"130435","name":"","fullName":"曲周县","lat":"36.77918","lng":"114.94485","provinceCode":"130000","cityCode":"130400"},{"code":"130481","name":"","fullName":"武安市","lat":"36.69671","lng":"114.20376","provinceCode":"130000","cityCode":"130400"},{"code":"130502","name":"","fullName":"桥东区","lat":"37.06787","lng":"114.50713","provinceCode":"130000","cityCode":"130500"},{"code":"130503","name":"","fullName":"桥西区","lat":"37.05983","lng":"114.46816","provinceCode":"130000","cityCode":"130500"},{"code":"130521","name":"","fullName":"邢台县","lat":"37.08627","lng":"114.54489","provinceCode":"130000","cityCode":"130500"},{"code":"130522","name":"","fullName":"临城县","lat":"37.4443","lng":"114.49898","provinceCode":"130000","cityCode":"130500"},{"code":"130523","name":"","fullName":"内丘县","lat":"37.28678","lng":"114.51207","provinceCode":"130000","cityCode":"130500"},{"code":"130524","name":"","fullName":"柏乡县","lat":"37.48244","lng":"114.69363","provinceCode":"130000","cityCode":"130500"},{"code":"130525","name":"","fullName":"隆尧县","lat":"37.35025","lng":"114.77031","provinceCode":"130000","cityCode":"130500"},{"code":"130526","name":"","fullName":"任县","lat":"37.12092","lng":"114.67132","provinceCode":"130000","cityCode":"130500"},{"code":"130527","name":"","fullName":"南和县","lat":"37.0049","lng":"114.68376","provinceCode":"130000","cityCode":"130500"},{"code":"130528","name":"","fullName":"宁晋县","lat":"37.6198","lng":"114.91932","provinceCode":"130000","cityCode":"130500"},{"code":"130529","name":"","fullName":"巨鹿县","lat":"37.22107","lng":"115.03781","provinceCode":"130000","cityCode":"130500"},{"code":"130530","name":"","fullName":"新河县","lat":"37.52867","lng":"115.24214","provinceCode":"130000","cityCode":"130500"},{"code":"130531","name":"","fullName":"广宗县","lat":"37.07463","lng":"115.14261","provinceCode":"130000","cityCode":"130500"},{"code":"130532","name":"","fullName":"平乡县","lat":"37.06319","lng":"115.03007","provinceCode":"130000","cityCode":"130500"},{"code":"130533","name":"","fullName":"威县","lat":"36.97542","lng":"115.26669","provinceCode":"130000","cityCode":"130500"},{"code":"130534","name":"","fullName":"清河县","lat":"37.03993","lng":"115.66718","provinceCode":"130000","cityCode":"130500"},{"code":"130535","name":"","fullName":"临西县","lat":"36.87082","lng":"115.50104","provinceCode":"130000","cityCode":"130500"},{"code":"130581","name":"","fullName":"南宫市","lat":"37.35795","lng":"115.40866","provinceCode":"130000","cityCode":"130500"},{"code":"130582","name":"","fullName":"沙河市","lat":"36.85516","lng":"114.50332","provinceCode":"130000","cityCode":"130500"},{"code":"130602","name":"","fullName":"竞秀区","lat":"38.87757","lng":"115.45875","provinceCode":"130000","cityCode":"130600"},{"code":"130606","name":"","fullName":"莲池区","lat":"38.88353","lng":"115.49715","provinceCode":"130000","cityCode":"130600"},{"code":"130607","name":"","fullName":"满城区","lat":"38.94892","lng":"115.32217","provinceCode":"130000","cityCode":"130600"},{"code":"130608","name":"","fullName":"清苑区","lat":"38.76526","lng":"115.48989","provinceCode":"130000","cityCode":"130600"},{"code":"130609","name":"","fullName":"徐水区","lat":"39.01865","lng":"115.65586","provinceCode":"130000","cityCode":"130600"},{"code":"130623","name":"","fullName":"涞水县","lat":"39.39428","lng":"115.71378","provinceCode":"130000","cityCode":"130600"},{"code":"130624","name":"","fullName":"阜平县","lat":"38.84915","lng":"114.19531","provinceCode":"130000","cityCode":"130600"},{"code":"130626","name":"","fullName":"定兴县","lat":"39.26315","lng":"115.8079","provinceCode":"130000","cityCode":"130600"},{"code":"130627","name":"","fullName":"唐县","lat":"38.7479","lng":"114.98295","provinceCode":"130000","cityCode":"130600"},{"code":"130628","name":"","fullName":"高阳县","lat":"38.70007","lng":"115.77884","provinceCode":"130000","cityCode":"130600"},{"code":"130629","name":"","fullName":"容城县","lat":"39.04285","lng":"115.86164","provinceCode":"130000","cityCode":"130600"},{"code":"130630","name":"","fullName":"涞源县","lat":"39.36018","lng":"114.69424","provinceCode":"130000","cityCode":"130600"},{"code":"130631","name":"","fullName":"望都县","lat":"38.709","lng":"115.15564","provinceCode":"130000","cityCode":"130600"},{"code":"130632","name":"","fullName":"安新县","lat":"38.93535","lng":"115.93564","provinceCode":"130000","cityCode":"130600"},{"code":"130633","name":"","fullName":"易县","lat":"39.34926","lng":"115.49846","provinceCode":"130000","cityCode":"130600"},{"code":"130634","name":"","fullName":"曲阳县","lat":"38.62231","lng":"114.74501","provinceCode":"130000","cityCode":"130600"},{"code":"130635","name":"","fullName":"蠡县","lat":"38.48806","lng":"115.5836","provinceCode":"130000","cityCode":"130600"},{"code":"130636","name":"","fullName":"顺平县","lat":"38.83759","lng":"115.13543","provinceCode":"130000","cityCode":"130600"},{"code":"130637","name":"","fullName":"博野县","lat":"38.45766","lng":"115.46439","provinceCode":"130000","cityCode":"130600"},{"code":"130638","name":"","fullName":"雄县","lat":"38.99446","lng":"116.10879","provinceCode":"130000","cityCode":"130600"},{"code":"130681","name":"","fullName":"涿州市","lat":"39.48529","lng":"115.97439","provinceCode":"130000","cityCode":"130600"},{"code":"130682","name":"","fullName":"定州市","lat":"38.51626","lng":"114.99025","provinceCode":"130000","cityCode":"130600"},{"code":"130683","name":"","fullName":"安国市","lat":"38.41845","lng":"115.32664","provinceCode":"130000","cityCode":"130600"},{"code":"130684","name":"","fullName":"高碑店市","lat":"39.32658","lng":"115.87373","provinceCode":"130000","cityCode":"130600"},{"code":"130702","name":"","fullName":"桥东区","lat":"40.78847","lng":"114.89436","provinceCode":"130000","cityCode":"130700"},{"code":"130703","name":"","fullName":"桥西区","lat":"40.81956","lng":"114.86937","provinceCode":"130000","cityCode":"130700"},{"code":"130705","name":"","fullName":"宣化区","lat":"40.60845","lng":"115.09923","provinceCode":"130000","cityCode":"130700"},{"code":"130706","name":"","fullName":"下花园区","lat":"40.5024","lng":"115.28751","provinceCode":"130000","cityCode":"130700"},{"code":"130708","name":"","fullName":"万全区","lat":"40.76699","lng":"114.74055","provinceCode":"130000","cityCode":"130700"},{"code":"130709","name":"","fullName":"崇礼区","lat":"40.97457","lng":"115.28261","provinceCode":"130000","cityCode":"130700"},{"code":"130722","name":"","fullName":"张北县","lat":"41.15862","lng":"114.71987","provinceCode":"130000","cityCode":"130700"},{"code":"130723","name":"","fullName":"康保县","lat":"41.85228","lng":"114.60035","provinceCode":"130000","cityCode":"130700"},{"code":"130724","name":"","fullName":"沽源县","lat":"41.66964","lng":"115.68865","provinceCode":"130000","cityCode":"130700"},{"code":"130725","name":"","fullName":"尚义县","lat":"41.07599","lng":"113.96919","provinceCode":"130000","cityCode":"130700"},{"code":"130726","name":"","fullName":"蔚县","lat":"39.84072","lng":"114.58897","provinceCode":"130000","cityCode":"130700"},{"code":"130727","name":"","fullName":"阳原县","lat":"40.10366","lng":"114.15057","provinceCode":"130000","cityCode":"130700"},{"code":"130728","name":"","fullName":"怀安县","lat":"40.6743","lng":"114.38564","provinceCode":"130000","cityCode":"130700"},{"code":"130730","name":"","fullName":"怀来县","lat":"40.41538","lng":"115.51778","provinceCode":"130000","cityCode":"130700"},{"code":"130731","name":"","fullName":"涿鹿县","lat":"40.38003","lng":"115.21962","provinceCode":"130000","cityCode":"130700"},{"code":"130732","name":"","fullName":"赤城县","lat":"40.91295","lng":"115.83166","provinceCode":"130000","cityCode":"130700"},{"code":"130802","name":"","fullName":"双桥区","lat":"40.97469","lng":"117.94348","provinceCode":"130000","cityCode":"130800"},{"code":"130803","name":"","fullName":"双滦区","lat":"40.95913","lng":"117.80024","provinceCode":"130000","cityCode":"130800"},{"code":"130804","name":"","fullName":"鹰手营子矿区","lat":"40.5464","lng":"117.65955","provinceCode":"130000","cityCode":"130800"},{"code":"130821","name":"","fullName":"承德县","lat":"40.76853","lng":"118.17382","provinceCode":"130000","cityCode":"130800"},{"code":"130822","name":"","fullName":"兴隆县","lat":"40.41727","lng":"117.50076","provinceCode":"130000","cityCode":"130800"},{"code":"130824","name":"","fullName":"滦平县","lat":"40.94145","lng":"117.33286","provinceCode":"130000","cityCode":"130800"},{"code":"130825","name":"","fullName":"隆化县","lat":"41.31381","lng":"117.73897","provinceCode":"130000","cityCode":"130800"},{"code":"130826","name":"","fullName":"丰宁满族自治县","lat":"41.20894","lng":"116.64591","provinceCode":"130000","cityCode":"130800"},{"code":"130827","name":"","fullName":"宽城满族自治县","lat":"40.61139","lng":"118.48535","provinceCode":"130000","cityCode":"130800"},{"code":"130828","name":"","fullName":"围场满族蒙古族自治县","lat":"41.93846","lng":"117.76016","provinceCode":"130000","cityCode":"130800"},{"code":"130881","name":"","fullName":"平泉市","lat":"41.01797","lng":"118.70065","provinceCode":"130000","cityCode":"130800"},{"code":"130902","name":"","fullName":"新华区","lat":"38.31404","lng":"116.86638","provinceCode":"130000","cityCode":"130900"},{"code":"130903","name":"","fullName":"运河区","lat":"38.31077","lng":"116.83191","provinceCode":"130000","cityCode":"130900"},{"code":"130921","name":"","fullName":"沧县","lat":"38.32474","lng":"116.60718","provinceCode":"130000","cityCode":"130900"},{"code":"130922","name":"","fullName":"青县","lat":"38.58348","lng":"116.80318","provinceCode":"130000","cityCode":"130900"},{"code":"130923","name":"","fullName":"东光县","lat":"37.88828","lng":"116.5371","provinceCode":"130000","cityCode":"130900"},{"code":"130924","name":"","fullName":"海兴县","lat":"38.14325","lng":"117.49785","provinceCode":"130000","cityCode":"130900"},{"code":"130925","name":"","fullName":"盐山县","lat":"38.0583","lng":"117.23025","provinceCode":"130000","cityCode":"130900"},{"code":"130926","name":"","fullName":"肃宁县","lat":"38.42277","lng":"115.82997","provinceCode":"130000","cityCode":"130900"},{"code":"130927","name":"","fullName":"南皮县","lat":"38.0378","lng":"116.70774","provinceCode":"130000","cityCode":"130900"},{"code":"130928","name":"","fullName":"吴桥县","lat":"37.6277","lng":"116.39154","provinceCode":"130000","cityCode":"130900"},{"code":"130929","name":"","fullName":"献县","lat":"38.19018","lng":"116.12279","provinceCode":"130000","cityCode":"130900"},{"code":"130930","name":"","fullName":"孟村回族自治县","lat":"38.05341","lng":"117.10418","provinceCode":"130000","cityCode":"130900"},{"code":"130981","name":"","fullName":"泊头市","lat":"38.08364","lng":"116.57828","provinceCode":"130000","cityCode":"130900"},{"code":"130982","name":"","fullName":"任丘市","lat":"38.71164","lng":"116.09954","provinceCode":"130000","cityCode":"130900"},{"code":"130983","name":"","fullName":"黄骅市","lat":"38.37139","lng":"117.33012","provinceCode":"130000","cityCode":"130900"},{"code":"130984","name":"","fullName":"河间市","lat":"38.44548","lng":"116.099","provinceCode":"130000","cityCode":"130900"},{"code":"131002","name":"","fullName":"安次区","lat":"39.50311","lng":"116.68572","provinceCode":"130000","cityCode":"131000"},{"code":"131003","name":"","fullName":"广阳区","lat":"39.5228","lng":"116.71051","provinceCode":"130000","cityCode":"131000"},{"code":"131022","name":"","fullName":"固安县","lat":"39.43825","lng":"116.29852","provinceCode":"130000","cityCode":"131000"},{"code":"131023","name":"","fullName":"永清县","lat":"39.32178","lng":"116.49904","provinceCode":"130000","cityCode":"131000"},{"code":"131024","name":"","fullName":"香河县","lat":"39.76142","lng":"117.00645","provinceCode":"130000","cityCode":"131000"},{"code":"131025","name":"","fullName":"大城县","lat":"38.70469","lng":"116.65423","provinceCode":"130000","cityCode":"131000"},{"code":"131026","name":"","fullName":"文安县","lat":"38.87328","lng":"116.45848","provinceCode":"130000","cityCode":"131000"},{"code":"131028","name":"","fullName":"大厂回族自治县","lat":"39.88665","lng":"116.98951","provinceCode":"130000","cityCode":"131000"},{"code":"131081","name":"","fullName":"霸州市","lat":"39.12581","lng":"116.3917","provinceCode":"130000","cityCode":"131000"},{"code":"131082","name":"","fullName":"三河市","lat":"39.98246","lng":"117.07822","provinceCode":"130000","cityCode":"131000"},{"code":"131102","name":"","fullName":"桃城区","lat":"37.73516","lng":"115.67466","provinceCode":"130000","cityCode":"131100"},{"code":"131103","name":"","fullName":"冀州区","lat":"37.55085","lng":"115.57938","provinceCode":"130000","cityCode":"131100"},{"code":"131121","name":"","fullName":"枣强县","lat":"37.51337","lng":"115.72418","provinceCode":"130000","cityCode":"131100"},{"code":"131122","name":"","fullName":"武邑县","lat":"37.80186","lng":"115.88751","provinceCode":"130000","cityCode":"131100"},{"code":"131123","name":"","fullName":"武强县","lat":"38.0412","lng":"115.98253","provinceCode":"130000","cityCode":"131100"},{"code":"131124","name":"","fullName":"饶阳县","lat":"38.2353","lng":"115.7256","provinceCode":"130000","cityCode":"131100"},{"code":"131125","name":"","fullName":"安平县","lat":"38.23447","lng":"115.51912","provinceCode":"130000","cityCode":"131100"},{"code":"131126","name":"","fullName":"故城县","lat":"37.34748","lng":"115.96581","provinceCode":"130000","cityCode":"131100"},{"code":"131127","name":"","fullName":"景县","lat":"37.69234","lng":"116.2706","provinceCode":"130000","cityCode":"131100"},{"code":"131128","name":"","fullName":"阜城县","lat":"37.86885","lng":"116.14437","provinceCode":"130000","cityCode":"131100"},{"code":"131182","name":"","fullName":"深州市","lat":"38.00022","lng":"115.56001","provinceCode":"130000","cityCode":"131100"},{"code":"140105","name":"","fullName":"小店区","lat":"37.73605","lng":"112.56566","provinceCode":"140000","cityCode":"140100"},{"code":"140106","name":"","fullName":"迎泽区","lat":"37.8632","lng":"112.56346","provinceCode":"140000","cityCode":"140100"},{"code":"140107","name":"","fullName":"杏花岭区","lat":"37.89403","lng":"112.57053","provinceCode":"140000","cityCode":"140100"},{"code":"140108","name":"","fullName":"尖草坪区","lat":"37.94036","lng":"112.48699","provinceCode":"140000","cityCode":"140100"},{"code":"140109","name":"","fullName":"万柏林区","lat":"37.85929","lng":"112.51562","provinceCode":"140000","cityCode":"140100"},{"code":"140110","name":"","fullName":"晋源区","lat":"37.71525","lng":"112.4777","provinceCode":"140000","cityCode":"140100"},{"code":"140121","name":"","fullName":"清徐县","lat":"37.60856","lng":"112.35925","provinceCode":"140000","cityCode":"140100"},{"code":"140122","name":"","fullName":"阳曲县","lat":"38.05828","lng":"112.67292","provinceCode":"140000","cityCode":"140100"},{"code":"140123","name":"","fullName":"娄烦县","lat":"38.0672","lng":"111.79745","provinceCode":"140000","cityCode":"140100"},{"code":"140181","name":"","fullName":"古交市","lat":"37.90714","lng":"112.17588","provinceCode":"140000","cityCode":"140100"},{"code":"140212","name":"","fullName":"新荣区","lat":"40.25585","lng":"113.14013","provinceCode":"140000","cityCode":"140200"},{"code":"140213","name":"","fullName":"平城区","lat":"40.07583","lng":"113.29798","provinceCode":"140000","cityCode":"140200"},{"code":"140214","name":"","fullName":"云冈区","lat":"40.00543","lng":"113.14952","provinceCode":"140000","cityCode":"140200"},{"code":"140215","name":"","fullName":"云州区","lat":"40.04016","lng":"113.61217","provinceCode":"140000","cityCode":"140200"},{"code":"140221","name":"","fullName":"阳高县","lat":"40.36627","lng":"113.75412","provinceCode":"140000","cityCode":"140200"},{"code":"140222","name":"","fullName":"天镇县","lat":"40.42031","lng":"114.0907","provinceCode":"140000","cityCode":"140200"},{"code":"140223","name":"","fullName":"广灵县","lat":"39.7602","lng":"114.28257","provinceCode":"140000","cityCode":"140200"},{"code":"140224","name":"","fullName":"灵丘县","lat":"39.44243","lng":"114.2342","provinceCode":"140000","cityCode":"140200"},{"code":"140225","name":"","fullName":"浑源县","lat":"39.69873","lng":"113.6908","provinceCode":"140000","cityCode":"140200"},{"code":"140226","name":"","fullName":"左云县","lat":"40.01349","lng":"112.70273","provinceCode":"140000","cityCode":"140200"},{"code":"140302","name":"","fullName":"城区","lat":"37.84739","lng":"113.60075","provinceCode":"140000","cityCode":"140300"},{"code":"140303","name":"","fullName":"矿区","lat":"37.86851","lng":"113.5553","provinceCode":"140000","cityCode":"140300"},{"code":"140311","name":"","fullName":"郊区","lat":"37.94135","lng":"113.58515","provinceCode":"140000","cityCode":"140300"},{"code":"140321","name":"","fullName":"平定县","lat":"37.78685","lng":"113.65804","provinceCode":"140000","cityCode":"140300"},{"code":"140322","name":"","fullName":"盂县","lat":"38.0858","lng":"113.41238","provinceCode":"140000","cityCode":"140300"},{"code":"140403","name":"","fullName":"潞州区","lat":"36.20346","lng":"113.12303","provinceCode":"140000","cityCode":"140400"},{"code":"140404","name":"","fullName":"上党区","lat":"36.05312","lng":"113.05135","provinceCode":"140000","cityCode":"140400"},{"code":"140405","name":"","fullName":"屯留区","lat":"36.31553","lng":"112.89221","provinceCode":"140000","cityCode":"140400"},{"code":"140406","name":"","fullName":"潞城区","lat":"36.33418","lng":"113.22893","provinceCode":"140000","cityCode":"140400"},{"code":"140423","name":"","fullName":"襄垣县","lat":"36.53581","lng":"113.05306","provinceCode":"140000","cityCode":"140400"},{"code":"140425","name":"","fullName":"平顺县","lat":"36.20006","lng":"113.43606","provinceCode":"140000","cityCode":"140400"},{"code":"140426","name":"","fullName":"黎城县","lat":"36.50227","lng":"113.38722","provinceCode":"140000","cityCode":"140400"},{"code":"140427","name":"","fullName":"壶关县","lat":"36.11567","lng":"113.20733","provinceCode":"140000","cityCode":"140400"},{"code":"140428","name":"","fullName":"长子县","lat":"36.12222","lng":"112.87795","provinceCode":"140000","cityCode":"140400"},{"code":"140429","name":"","fullName":"武乡县","lat":"36.8378","lng":"112.86387","provinceCode":"140000","cityCode":"140400"},{"code":"140430","name":"","fullName":"沁县","lat":"36.75608","lng":"112.69907","provinceCode":"140000","cityCode":"140400"},{"code":"140431","name":"","fullName":"沁源县","lat":"36.5001","lng":"112.33762","provinceCode":"140000","cityCode":"140400"},{"code":"140502","name":"","fullName":"城区","lat":"35.50154","lng":"112.85352","provinceCode":"140000","cityCode":"140500"},{"code":"140521","name":"","fullName":"沁水县","lat":"35.69015","lng":"112.1866","provinceCode":"140000","cityCode":"140500"},{"code":"140522","name":"","fullName":"阳城县","lat":"35.48618","lng":"112.41491","provinceCode":"140000","cityCode":"140500"},{"code":"140524","name":"","fullName":"陵川县","lat":"35.77512","lng":"113.28061","provinceCode":"140000","cityCode":"140500"},{"code":"140525","name":"","fullName":"泽州县","lat":"35.50043","lng":"112.94366","provinceCode":"140000","cityCode":"140500"},{"code":"140581","name":"","fullName":"高平市","lat":"35.79807","lng":"112.92358","provinceCode":"140000","cityCode":"140500"},{"code":"140602","name":"","fullName":"朔城区","lat":"39.31918","lng":"112.43314","provinceCode":"140000","cityCode":"140600"},{"code":"140603","name":"","fullName":"平鲁区","lat":"39.51238","lng":"112.28832","provinceCode":"140000","cityCode":"140600"},{"code":"140621","name":"","fullName":"山阴县","lat":"39.52625","lng":"112.81572","provinceCode":"140000","cityCode":"140600"},{"code":"140622","name":"","fullName":"应县","lat":"39.55434","lng":"113.19093","provinceCode":"140000","cityCode":"140600"},{"code":"140623","name":"","fullName":"右玉县","lat":"39.98913","lng":"112.46705","provinceCode":"140000","cityCode":"140600"},{"code":"140681","name":"","fullName":"怀仁市","lat":"39.82788","lng":"113.10012","provinceCode":"140000","cityCode":"140600"},{"code":"140702","name":"","fullName":"榆次区","lat":"37.69978","lng":"112.70746","provinceCode":"140000","cityCode":"140700"},{"code":"140721","name":"","fullName":"榆社县","lat":"37.07084","lng":"112.97522","provinceCode":"140000","cityCode":"140700"},{"code":"140722","name":"","fullName":"左权县","lat":"37.08243","lng":"113.37926","provinceCode":"140000","cityCode":"140700"},{"code":"140723","name":"","fullName":"和顺县","lat":"37.32963","lng":"113.57032","provinceCode":"140000","cityCode":"140700"},{"code":"140724","name":"","fullName":"昔阳县","lat":"37.61282","lng":"113.70718","provinceCode":"140000","cityCode":"140700"},{"code":"140725","name":"","fullName":"寿阳县","lat":"37.89498","lng":"113.17666","provinceCode":"140000","cityCode":"140700"},{"code":"140726","name":"","fullName":"太谷县","lat":"37.42119","lng":"112.55126","provinceCode":"140000","cityCode":"140700"},{"code":"140727","name":"","fullName":"祁县","lat":"37.35775","lng":"112.33507","provinceCode":"140000","cityCode":"140700"},{"code":"140728","name":"","fullName":"平遥县","lat":"37.18934","lng":"112.17557","provinceCode":"140000","cityCode":"140700"},{"code":"140729","name":"","fullName":"灵石县","lat":"36.84788","lng":"111.77879","provinceCode":"140000","cityCode":"140700"},{"code":"140781","name":"","fullName":"介休市","lat":"37.0271","lng":"111.91672","provinceCode":"140000","cityCode":"140700"},{"code":"140802","name":"","fullName":"盐湖区","lat":"35.01505","lng":"110.99817","provinceCode":"140000","cityCode":"140800"},{"code":"140821","name":"","fullName":"临猗县","lat":"35.14471","lng":"110.77408","provinceCode":"140000","cityCode":"140800"},{"code":"140822","name":"","fullName":"万荣县","lat":"35.41534","lng":"110.83781","provinceCode":"140000","cityCode":"140800"},{"code":"140823","name":"","fullName":"闻喜县","lat":"35.35663","lng":"111.22472","provinceCode":"140000","cityCode":"140800"},{"code":"140824","name":"","fullName":"稷山县","lat":"35.60401","lng":"110.98311","provinceCode":"140000","cityCode":"140800"},{"code":"140825","name":"","fullName":"新绛县","lat":"35.61622","lng":"111.2247","provinceCode":"140000","cityCode":"140800"},{"code":"140826","name":"","fullName":"绛县","lat":"35.49146","lng":"111.56878","provinceCode":"140000","cityCode":"140800"},{"code":"140827","name":"","fullName":"垣曲县","lat":"35.29762","lng":"111.67025","provinceCode":"140000","cityCode":"140800"},{"code":"140828","name":"","fullName":"夏县","lat":"35.14136","lng":"111.22031","provinceCode":"140000","cityCode":"140800"},{"code":"140829","name":"","fullName":"平陆县","lat":"34.83467","lng":"111.19474","provinceCode":"140000","cityCode":"140800"},{"code":"140830","name":"","fullName":"芮城县","lat":"34.69365","lng":"110.69442","provinceCode":"140000","cityCode":"140800"},{"code":"140881","name":"","fullName":"永济市","lat":"34.86716","lng":"110.44773","provinceCode":"140000","cityCode":"140800"},{"code":"140882","name":"","fullName":"河津市","lat":"35.59643","lng":"110.71186","provinceCode":"140000","cityCode":"140800"},{"code":"140902","name":"","fullName":"忻府区","lat":"38.40429","lng":"112.74619","provinceCode":"140000","cityCode":"140900"},{"code":"140921","name":"","fullName":"定襄县","lat":"38.4731","lng":"112.95728","provinceCode":"140000","cityCode":"140900"},{"code":"140922","name":"","fullName":"五台县","lat":"38.72812","lng":"113.2554","provinceCode":"140000","cityCode":"140900"},{"code":"140923","name":"","fullName":"代县","lat":"39.06689","lng":"112.95996","provinceCode":"140000","cityCode":"140900"},{"code":"140924","name":"","fullName":"繁峙县","lat":"39.18904","lng":"113.26547","provinceCode":"140000","cityCode":"140900"},{"code":"140925","name":"","fullName":"宁武县","lat":"39.00147","lng":"112.3045","provinceCode":"140000","cityCode":"140900"},{"code":"140926","name":"","fullName":"静乐县","lat":"38.35924","lng":"111.93875","provinceCode":"140000","cityCode":"140900"},{"code":"140927","name":"","fullName":"神池县","lat":"39.09059","lng":"112.21077","provinceCode":"140000","cityCode":"140900"},{"code":"140928","name":"","fullName":"五寨县","lat":"38.91071","lng":"111.84701","provinceCode":"140000","cityCode":"140900"},{"code":"140929","name":"","fullName":"岢岚县","lat":"38.70427","lng":"111.57296","provinceCode":"140000","cityCode":"140900"},{"code":"140930","name":"","fullName":"河曲县","lat":"39.38456","lng":"111.13837","provinceCode":"140000","cityCode":"140900"},{"code":"140931","name":"","fullName":"保德县","lat":"39.02265","lng":"111.08625","provinceCode":"140000","cityCode":"140900"},{"code":"140932","name":"","fullName":"偏关县","lat":"39.43613","lng":"111.50869","provinceCode":"140000","cityCode":"140900"},{"code":"140981","name":"","fullName":"原平市","lat":"38.73051","lng":"112.71092","provinceCode":"140000","cityCode":"140900"},{"code":"141002","name":"","fullName":"尧都区","lat":"36.08301","lng":"111.57873","provinceCode":"140000","cityCode":"141000"},{"code":"141021","name":"","fullName":"曲沃县","lat":"35.64105","lng":"111.4757","provinceCode":"140000","cityCode":"141000"},{"code":"141022","name":"","fullName":"翼城县","lat":"35.73823","lng":"111.71836","provinceCode":"140000","cityCode":"141000"},{"code":"141023","name":"","fullName":"襄汾县","lat":"35.87618","lng":"111.44189","provinceCode":"140000","cityCode":"141000"},{"code":"141024","name":"","fullName":"洪洞县","lat":"36.25374","lng":"111.67496","provinceCode":"140000","cityCode":"141000"},{"code":"141025","name":"","fullName":"古县","lat":"36.2665","lng":"111.92032","provinceCode":"140000","cityCode":"141000"},{"code":"141026","name":"","fullName":"安泽县","lat":"36.14781","lng":"112.25013","provinceCode":"140000","cityCode":"141000"},{"code":"141027","name":"","fullName":"浮山县","lat":"35.96802","lng":"111.84952","provinceCode":"140000","cityCode":"141000"},{"code":"141028","name":"","fullName":"吉县","lat":"36.09789","lng":"110.68162","provinceCode":"140000","cityCode":"141000"},{"code":"141029","name":"","fullName":"乡宁县","lat":"35.97053","lng":"110.84721","provinceCode":"140000","cityCode":"141000"},{"code":"141030","name":"","fullName":"大宁县","lat":"36.46511","lng":"110.75285","provinceCode":"140000","cityCode":"141000"},{"code":"141031","name":"","fullName":"隰县","lat":"36.69344","lng":"110.94049","provinceCode":"140000","cityCode":"141000"},{"code":"141032","name":"","fullName":"永和县","lat":"36.75952","lng":"110.63198","provinceCode":"140000","cityCode":"141000"},{"code":"141033","name":"","fullName":"蒲县","lat":"36.41179","lng":"111.09648","provinceCode":"140000","cityCode":"141000"},{"code":"141034","name":"","fullName":"汾西县","lat":"36.65295","lng":"111.56365","provinceCode":"140000","cityCode":"141000"},{"code":"141081","name":"","fullName":"侯马市","lat":"35.61908","lng":"111.37213","provinceCode":"140000","cityCode":"141000"},{"code":"141082","name":"","fullName":"霍州市","lat":"36.56879","lng":"111.75505","provinceCode":"140000","cityCode":"141000"},{"code":"141102","name":"","fullName":"离石区","lat":"37.51761","lng":"111.15081","provinceCode":"140000","cityCode":"141100"},{"code":"141121","name":"","fullName":"文水县","lat":"37.43843","lng":"112.0285","provinceCode":"140000","cityCode":"141100"},{"code":"141122","name":"","fullName":"交城县","lat":"37.55165","lng":"112.15478","provinceCode":"140000","cityCode":"141100"},{"code":"141123","name":"","fullName":"兴县","lat":"38.46242","lng":"111.1276","provinceCode":"140000","cityCode":"141100"},{"code":"141124","name":"","fullName":"临县","lat":"37.95106","lng":"110.99208","provinceCode":"140000","cityCode":"141100"},{"code":"141125","name":"","fullName":"柳林县","lat":"37.42902","lng":"110.88937","provinceCode":"140000","cityCode":"141100"},{"code":"141126","name":"","fullName":"石楼县","lat":"36.99857","lng":"110.83469","provinceCode":"140000","cityCode":"141100"},{"code":"141127","name":"","fullName":"岚县","lat":"38.27939","lng":"111.67195","provinceCode":"140000","cityCode":"141100"},{"code":"141128","name":"","fullName":"方山县","lat":"37.8947","lng":"111.24396","provinceCode":"140000","cityCode":"141100"},{"code":"141129","name":"","fullName":"中阳县","lat":"37.3572","lng":"111.17953","provinceCode":"140000","cityCode":"141100"},{"code":"141130","name":"","fullName":"交口县","lat":"36.98217","lng":"111.18107","provinceCode":"140000","cityCode":"141100"},{"code":"141181","name":"","fullName":"孝义市","lat":"37.14534","lng":"111.77903","provinceCode":"140000","cityCode":"141100"},{"code":"141182","name":"","fullName":"汾阳市","lat":"37.26542","lng":"111.78777","provinceCode":"140000","cityCode":"141100"},{"code":"150102","name":"","fullName":"新城区","lat":"40.85844","lng":"111.66345","provinceCode":"150000","cityCode":"150100"},{"code":"150103","name":"","fullName":"回民区","lat":"40.80772","lng":"111.62299","provinceCode":"150000","cityCode":"150100"},{"code":"150104","name":"","fullName":"玉泉区","lat":"40.75319","lng":"111.67543","provinceCode":"150000","cityCode":"150100"},{"code":"150105","name":"","fullName":"赛罕区","lat":"40.79195","lng":"111.70171","provinceCode":"150000","cityCode":"150100"},{"code":"150121","name":"","fullName":"土默特左旗","lat":"40.72957","lng":"111.16358","provinceCode":"150000","cityCode":"150100"},{"code":"150122","name":"","fullName":"托克托县","lat":"40.27744","lng":"111.19421","provinceCode":"150000","cityCode":"150100"},{"code":"150123","name":"","fullName":"和林格尔县","lat":"40.37859","lng":"111.82083","provinceCode":"150000","cityCode":"150100"},{"code":"150124","name":"","fullName":"清水河县","lat":"39.90892","lng":"111.68639","provinceCode":"150000","cityCode":"150100"},{"code":"150125","name":"","fullName":"武川县","lat":"41.0965","lng":"111.45118","provinceCode":"150000","cityCode":"150100"},{"code":"150202","name":"","fullName":"东河区","lat":"40.57643","lng":"110.04317","provinceCode":"150000","cityCode":"150200"},{"code":"150203","name":"","fullName":"昆都仑区","lat":"40.64178","lng":"109.83859","provinceCode":"150000","cityCode":"150200"},{"code":"150204","name":"","fullName":"青山区","lat":"40.64559","lng":"109.90241","provinceCode":"150000","cityCode":"150200"},{"code":"150205","name":"","fullName":"石拐区","lat":"40.67204","lng":"110.27227","provinceCode":"150000","cityCode":"150200"},{"code":"150206","name":"","fullName":"白云鄂博矿区","lat":"41.76943","lng":"109.97372","provinceCode":"150000","cityCode":"150200"},{"code":"150207","name":"","fullName":"九原区","lat":"40.61009","lng":"109.96718","provinceCode":"150000","cityCode":"150200"},{"code":"150221","name":"","fullName":"土默特右旗","lat":"40.56883","lng":"110.52421","provinceCode":"150000","cityCode":"150200"},{"code":"150222","name":"","fullName":"固阳县","lat":"41.03412","lng":"110.0607","provinceCode":"150000","cityCode":"150200"},{"code":"150223","name":"","fullName":"达尔罕茂明安联合旗","lat":"41.69854","lng":"110.43261","provinceCode":"150000","cityCode":"150200"},{"code":"150302","name":"","fullName":"海勃湾区","lat":"39.69184","lng":"106.8226","provinceCode":"150000","cityCode":"150300"},{"code":"150303","name":"","fullName":"海南区","lat":"39.44096","lng":"106.89157","provinceCode":"150000","cityCode":"150300"},{"code":"150304","name":"","fullName":"乌达区","lat":"39.5058","lng":"106.72609","provinceCode":"150000","cityCode":"150300"},{"code":"150402","name":"","fullName":"红山区","lat":"42.26581","lng":"118.95927","provinceCode":"150000","cityCode":"150400"},{"code":"150403","name":"","fullName":"元宝山区","lat":"42.03888","lng":"119.28862","provinceCode":"150000","cityCode":"150400"},{"code":"150404","name":"","fullName":"松山区","lat":"42.28727","lng":"118.93301","provinceCode":"150000","cityCode":"150400"},{"code":"150421","name":"","fullName":"阿鲁科尔沁旗","lat":"43.87244","lng":"120.06556","provinceCode":"150000","cityCode":"150400"},{"code":"150422","name":"","fullName":"巴林左旗","lat":"43.97094","lng":"119.37961","provinceCode":"150000","cityCode":"150400"},{"code":"150423","name":"","fullName":"巴林右旗","lat":"43.53391","lng":"118.66466","provinceCode":"150000","cityCode":"150400"},{"code":"150424","name":"","fullName":"林西县","lat":"43.61702","lng":"118.0558","provinceCode":"150000","cityCode":"150400"},{"code":"150425","name":"","fullName":"克什克腾旗","lat":"43.26624","lng":"117.54421","provinceCode":"150000","cityCode":"150400"},{"code":"150426","name":"","fullName":"翁牛特旗","lat":"42.93483","lng":"119.00669","provinceCode":"150000","cityCode":"150400"},{"code":"150428","name":"","fullName":"喀喇沁旗","lat":"41.92718","lng":"118.70273","provinceCode":"150000","cityCode":"150400"},{"code":"150429","name":"","fullName":"宁城县","lat":"41.59426","lng":"119.34308","provinceCode":"150000","cityCode":"150400"},{"code":"150430","name":"","fullName":"敖汉旗","lat":"42.29073","lng":"119.92168","provinceCode":"150000","cityCode":"150400"},{"code":"150502","name":"","fullName":"科尔沁区","lat":"43.62244","lng":"122.25615","provinceCode":"150000","cityCode":"150500"},{"code":"150521","name":"","fullName":"科尔沁左翼中旗","lat":"44.12659","lng":"123.31216","provinceCode":"150000","cityCode":"150500"},{"code":"150522","name":"","fullName":"科尔沁左翼后旗","lat":"42.93511","lng":"122.35674","provinceCode":"150000","cityCode":"150500"},{"code":"150523","name":"","fullName":"开鲁县","lat":"43.60005","lng":"121.3189","provinceCode":"150000","cityCode":"150500"},{"code":"150524","name":"","fullName":"库伦旗","lat":"42.73504","lng":"121.81073","provinceCode":"150000","cityCode":"150500"},{"code":"150525","name":"","fullName":"奈曼旗","lat":"42.86729","lng":"120.65779","provinceCode":"150000","cityCode":"150500"},{"code":"150526","name":"","fullName":"扎鲁特旗","lat":"44.55631","lng":"120.91159","provinceCode":"150000","cityCode":"150500"},{"code":"150581","name":"","fullName":"霍林郭勒市","lat":"45.53141","lng":"119.66359","provinceCode":"150000","cityCode":"150500"},{"code":"150602","name":"","fullName":"东胜区","lat":"39.82127","lng":"109.96144","provinceCode":"150000","cityCode":"150600"},{"code":"150603","name":"","fullName":"康巴什区","lat":"39.60837","lng":"109.85851","provinceCode":"150000","cityCode":"150600"},{"code":"150621","name":"","fullName":"达拉特旗","lat":"40.40016","lng":"110.03293","provinceCode":"150000","cityCode":"150600"},{"code":"150622","name":"","fullName":"准格尔旗","lat":"39.86426","lng":"111.23987","provinceCode":"150000","cityCode":"150600"},{"code":"150623","name":"","fullName":"鄂托克前旗","lat":"38.18239","lng":"107.47743","provinceCode":"150000","cityCode":"150600"},{"code":"150624","name":"","fullName":"鄂托克旗","lat":"39.08989","lng":"107.9776","provinceCode":"150000","cityCode":"150600"},{"code":"150625","name":"","fullName":"杭锦旗","lat":"39.83352","lng":"108.73497","provinceCode":"150000","cityCode":"150600"},{"code":"150626","name":"","fullName":"乌审旗","lat":"38.60388","lng":"108.81769","provinceCode":"150000","cityCode":"150600"},{"code":"150627","name":"","fullName":"伊金霍洛旗","lat":"39.56442","lng":"109.74811","provinceCode":"150000","cityCode":"150600"},{"code":"150702","name":"","fullName":"海拉尔区","lat":"49.21336","lng":"119.73572","provinceCode":"150000","cityCode":"150700"},{"code":"150703","name":"","fullName":"扎赉诺尔区","lat":"49.51054","lng":"117.66992","provinceCode":"150000","cityCode":"150700"},{"code":"150721","name":"","fullName":"阿荣旗","lat":"48.12582","lng":"123.45944","provinceCode":"150000","cityCode":"150700"},{"code":"150722","name":"","fullName":"莫力达瓦达斡尔族自治旗","lat":"48.47711","lng":"124.51936","provinceCode":"150000","cityCode":"150700"},{"code":"150723","name":"","fullName":"鄂伦春自治旗","lat":"50.59158","lng":"123.72577","provinceCode":"150000","cityCode":"150700"},{"code":"150724","name":"","fullName":"鄂温克族自治旗","lat":"49.14678","lng":"119.75542","provinceCode":"150000","cityCode":"150700"},{"code":"150725","name":"","fullName":"陈巴尔虎旗","lat":"49.32837","lng":"119.42429","provinceCode":"150000","cityCode":"150700"},{"code":"150726","name":"","fullName":"新巴尔虎左旗","lat":"48.21819","lng":"118.26995","provinceCode":"150000","cityCode":"150700"},{"code":"150727","name":"","fullName":"新巴尔虎右旗","lat":"48.67191","lng":"116.82355","provinceCode":"150000","cityCode":"150700"},{"code":"150781","name":"","fullName":"满洲里市","lat":"49.59655","lng":"117.37836","provinceCode":"150000","cityCode":"150700"},{"code":"150782","name":"","fullName":"牙克石市","lat":"49.28563","lng":"120.71174","provinceCode":"150000","cityCode":"150700"},{"code":"150783","name":"","fullName":"扎兰屯市","lat":"48.01365","lng":"122.73761","provinceCode":"150000","cityCode":"150700"},{"code":"150784","name":"","fullName":"额尔古纳市","lat":"50.24315","lng":"120.17962","provinceCode":"150000","cityCode":"150700"},{"code":"150785","name":"","fullName":"根河市","lat":"50.78046","lng":"121.5204","provinceCode":"150000","cityCode":"150700"},{"code":"150802","name":"","fullName":"临河区","lat":"40.76645","lng":"107.38683","provinceCode":"150000","cityCode":"150800"},{"code":"150821","name":"","fullName":"五原县","lat":"41.08879","lng":"108.2673","provinceCode":"150000","cityCode":"150800"},{"code":"150822","name":"","fullName":"磴口县","lat":"40.33056","lng":"107.00864","provinceCode":"150000","cityCode":"150800"},{"code":"150823","name":"","fullName":"乌拉特前旗","lat":"40.73662","lng":"108.65224","provinceCode":"150000","cityCode":"150800"},{"code":"150824","name":"","fullName":"乌拉特中旗","lat":"41.56746","lng":"108.52647","provinceCode":"150000","cityCode":"150800"},{"code":"150825","name":"","fullName":"乌拉特后旗","lat":"41.08414","lng":"107.07466","provinceCode":"150000","cityCode":"150800"},{"code":"150826","name":"","fullName":"杭锦后旗","lat":"40.88594","lng":"107.15114","provinceCode":"150000","cityCode":"150800"},{"code":"150902","name":"","fullName":"集宁区","lat":"40.9906","lng":"113.12401","provinceCode":"150000","cityCode":"150900"},{"code":"150921","name":"","fullName":"卓资县","lat":"40.89417","lng":"112.57785","provinceCode":"150000","cityCode":"150900"},{"code":"150922","name":"","fullName":"化德县","lat":"41.90479","lng":"114.01089","provinceCode":"150000","cityCode":"150900"},{"code":"150923","name":"","fullName":"商都县","lat":"41.5621","lng":"113.57718","provinceCode":"150000","cityCode":"150900"},{"code":"150924","name":"","fullName":"兴和县","lat":"40.8719","lng":"113.83396","provinceCode":"150000","cityCode":"150900"},{"code":"150925","name":"","fullName":"凉城县","lat":"40.53165","lng":"112.50387","provinceCode":"150000","cityCode":"150900"},{"code":"150926","name":"","fullName":"察哈尔右翼前旗","lat":"40.78585","lng":"113.21095","provinceCode":"150000","cityCode":"150900"},{"code":"150927","name":"","fullName":"察哈尔右翼中旗","lat":"41.27747","lng":"112.63544","provinceCode":"150000","cityCode":"150900"},{"code":"150928","name":"","fullName":"察哈尔右翼后旗","lat":"41.43589","lng":"113.19222","provinceCode":"150000","cityCode":"150900"},{"code":"150929","name":"","fullName":"四子王旗","lat":"41.53316","lng":"111.70658","provinceCode":"150000","cityCode":"150900"},{"code":"150981","name":"","fullName":"丰镇市","lat":"40.43574","lng":"113.11056","provinceCode":"150000","cityCode":"150900"},{"code":"152201","name":"","fullName":"乌兰浩特市","lat":"46.07282","lng":"122.09316","provinceCode":"150000","cityCode":"152200"},{"code":"152202","name":"","fullName":"阿尔山市","lat":"47.1771","lng":"119.94381","provinceCode":"150000","cityCode":"152200"},{"code":"152221","name":"","fullName":"科尔沁右翼前旗","lat":"46.07955","lng":"121.95275","provinceCode":"150000","cityCode":"152200"},{"code":"152222","name":"","fullName":"科尔沁右翼中旗","lat":"45.06056","lng":"121.47694","provinceCode":"150000","cityCode":"152200"},{"code":"152223","name":"","fullName":"扎赉特旗","lat":"46.72279","lng":"122.8998","provinceCode":"150000","cityCode":"152200"},{"code":"152224","name":"","fullName":"突泉县","lat":"45.38282","lng":"121.59408","provinceCode":"150000","cityCode":"152200"},{"code":"152501","name":"","fullName":"二连浩特市","lat":"43.64305","lng":"111.95238","provinceCode":"150000","cityCode":"152500"},{"code":"152502","name":"","fullName":"锡林浩特市","lat":"43.93339","lng":"116.08608","provinceCode":"150000","cityCode":"152500"},{"code":"152522","name":"","fullName":"阿巴嘎旗","lat":"44.02272","lng":"114.95034","provinceCode":"150000","cityCode":"152500"},{"code":"152523","name":"","fullName":"苏尼特左旗","lat":"43.85921","lng":"113.66737","provinceCode":"150000","cityCode":"152500"},{"code":"152524","name":"","fullName":"苏尼特右旗","lat":"42.74694","lng":"112.65746","provinceCode":"150000","cityCode":"152500"},{"code":"152525","name":"","fullName":"东乌珠穆沁旗","lat":"45.5096","lng":"116.97215","provinceCode":"150000","cityCode":"152500"},{"code":"152526","name":"","fullName":"西乌珠穆沁旗","lat":"44.58716","lng":"117.60899","provinceCode":"150000","cityCode":"152500"},{"code":"152527","name":"","fullName":"太仆寺旗","lat":"41.87732","lng":"115.28305","provinceCode":"150000","cityCode":"152500"},{"code":"152528","name":"","fullName":"镶黄旗","lat":"42.23232","lng":"113.84751","provinceCode":"150000","cityCode":"152500"},{"code":"152529","name":"","fullName":"正镶白旗","lat":"42.28722","lng":"115.03077","provinceCode":"150000","cityCode":"152500"},{"code":"152530","name":"","fullName":"正蓝旗","lat":"42.24162","lng":"115.99239","provinceCode":"150000","cityCode":"152500"},{"code":"152531","name":"","fullName":"多伦县","lat":"42.20303","lng":"116.48571","provinceCode":"150000","cityCode":"152500"},{"code":"152921","name":"","fullName":"阿拉善左旗","lat":"38.83343","lng":"105.66626","provinceCode":"150000","cityCode":"152900"},{"code":"152922","name":"","fullName":"阿拉善右旗","lat":"39.21536","lng":"101.66711","provinceCode":"150000","cityCode":"152900"},{"code":"152923","name":"","fullName":"额济纳旗","lat":"41.95449","lng":"101.05552","provinceCode":"150000","cityCode":"152900"},{"code":"210102","name":"","fullName":"和平区","lat":"41.78978","lng":"123.42056","provinceCode":"210000","cityCode":"210100"},{"code":"210103","name":"","fullName":"沈河区","lat":"41.79607","lng":"123.45852","provinceCode":"210000","cityCode":"210100"},{"code":"210104","name":"","fullName":"大东区","lat":"41.80515","lng":"123.46987","provinceCode":"210000","cityCode":"210100"},{"code":"210105","name":"","fullName":"皇姑区","lat":"41.82465","lng":"123.44168","provinceCode":"210000","cityCode":"210100"},{"code":"210106","name":"","fullName":"铁西区","lat":"41.80283","lng":"123.3768","provinceCode":"210000","cityCode":"210100"},{"code":"210111","name":"","fullName":"苏家屯区","lat":"41.66472","lng":"123.34432","provinceCode":"210000","cityCode":"210100"},{"code":"210112","name":"","fullName":"浑南区","lat":"41.71482","lng":"123.44972","provinceCode":"210000","cityCode":"210100"},{"code":"210113","name":"","fullName":"沈北新区","lat":"41.91303","lng":"123.58424","provinceCode":"210000","cityCode":"210100"},{"code":"210114","name":"","fullName":"于洪区","lat":"41.79407","lng":"123.30813","provinceCode":"210000","cityCode":"210100"},{"code":"210115","name":"","fullName":"辽中区","lat":"41.51685","lng":"122.76549","provinceCode":"210000","cityCode":"210100"},{"code":"210123","name":"","fullName":"康平县","lat":"42.7499","lng":"123.35349","provinceCode":"210000","cityCode":"210100"},{"code":"210124","name":"","fullName":"法库县","lat":"42.50403","lng":"123.40838","provinceCode":"210000","cityCode":"210100"},{"code":"210181","name":"","fullName":"新民市","lat":"41.99767","lng":"122.828","provinceCode":"210000","cityCode":"210100"},{"code":"210202","name":"","fullName":"中山区","lat":"38.91864","lng":"121.64511","provinceCode":"210000","cityCode":"210200"},{"code":"210203","name":"","fullName":"西岗区","lat":"38.91478","lng":"121.61234","provinceCode":"210000","cityCode":"210200"},{"code":"210204","name":"","fullName":"沙河口区","lat":"38.90463","lng":"121.59451","provinceCode":"210000","cityCode":"210200"},{"code":"210211","name":"","fullName":"甘井子区","lat":"38.95223","lng":"121.5255","provinceCode":"210000","cityCode":"210200"},{"code":"210212","name":"","fullName":"旅顺口区","lat":"38.85129","lng":"121.26208","provinceCode":"210000","cityCode":"210200"},{"code":"210213","name":"","fullName":"金州区","lat":"39.05015","lng":"121.78259","provinceCode":"210000","cityCode":"210200"},{"code":"210214","name":"","fullName":"普兰店区","lat":"39.39443","lng":"121.96323","provinceCode":"210000","cityCode":"210200"},{"code":"210224","name":"","fullName":"长海县","lat":"39.27276","lng":"122.58861","provinceCode":"210000","cityCode":"210200"},{"code":"210281","name":"","fullName":"瓦房店市","lat":"39.62644","lng":"121.97995","provinceCode":"210000","cityCode":"210200"},{"code":"210283","name":"","fullName":"庄河市","lat":"39.68037","lng":"122.96611","provinceCode":"210000","cityCode":"210200"},{"code":"210302","name":"","fullName":"铁东区","lat":"41.08994","lng":"122.9912","provinceCode":"210000","cityCode":"210300"},{"code":"210303","name":"","fullName":"铁西区","lat":"41.11956","lng":"122.96939","provinceCode":"210000","cityCode":"210300"},{"code":"210304","name":"","fullName":"立山区","lat":"41.15013","lng":"123.02952","provinceCode":"210000","cityCode":"210300"},{"code":"210311","name":"","fullName":"千山区","lat":"41.06462","lng":"122.95412","provinceCode":"210000","cityCode":"210300"},{"code":"210321","name":"","fullName":"台安县","lat":"41.41269","lng":"122.43591","provinceCode":"210000","cityCode":"210300"},{"code":"210323","name":"","fullName":"岫岩满族自治县","lat":"40.28998","lng":"123.28171","provinceCode":"210000","cityCode":"210300"},{"code":"210381","name":"","fullName":"海城市","lat":"40.88145","lng":"122.68463","provinceCode":"210000","cityCode":"210300"},{"code":"210402","name":"","fullName":"新抚区","lat":"41.85928","lng":"123.87415","provinceCode":"210000","cityCode":"210400"},{"code":"210403","name":"","fullName":"东洲区","lat":"41.85301","lng":"124.03923","provinceCode":"210000","cityCode":"210400"},{"code":"210404","name":"","fullName":"望花区","lat":"41.85329","lng":"123.78439","provinceCode":"210000","cityCode":"210400"},{"code":"210411","name":"","fullName":"顺城区","lat":"41.88307","lng":"123.94513","provinceCode":"210000","cityCode":"210400"},{"code":"210421","name":"","fullName":"抚顺县","lat":"41.78616","lng":"124.19596","provinceCode":"210000","cityCode":"210400"},{"code":"210422","name":"","fullName":"新宾满族自治县","lat":"41.73371","lng":"125.03979","provinceCode":"210000","cityCode":"210400"},{"code":"210423","name":"","fullName":"清原满族自治县","lat":"42.10038","lng":"124.92411","provinceCode":"210000","cityCode":"210400"},{"code":"210502","name":"","fullName":"平山区","lat":"41.22132","lng":"123.68338","provinceCode":"210000","cityCode":"210500"},{"code":"210503","name":"","fullName":"溪湖区","lat":"41.32919","lng":"123.76769","provinceCode":"210000","cityCode":"210500"},{"code":"210504","name":"","fullName":"明山区","lat":"41.30877","lng":"123.81695","provinceCode":"210000","cityCode":"210500"},{"code":"210505","name":"","fullName":"南芬区","lat":"41.10031","lng":"123.74509","provinceCode":"210000","cityCode":"210500"},{"code":"210521","name":"","fullName":"本溪满族自治县","lat":"41.3027","lng":"124.12193","provinceCode":"210000","cityCode":"210500"},{"code":"210522","name":"","fullName":"桓仁满族自治县","lat":"41.26706","lng":"125.36096","provinceCode":"210000","cityCode":"210500"},{"code":"210602","name":"","fullName":"元宝区","lat":"40.13673","lng":"124.39582","provinceCode":"210000","cityCode":"210600"},{"code":"210603","name":"","fullName":"振兴区","lat":"40.10495","lng":"124.36041","provinceCode":"210000","cityCode":"210600"},{"code":"210604","name":"","fullName":"振安区","lat":"40.15823","lng":"124.4282","provinceCode":"210000","cityCode":"210600"},{"code":"210624","name":"","fullName":"宽甸满族自治县","lat":"40.73131","lng":"124.78366","provinceCode":"210000","cityCode":"210600"},{"code":"210681","name":"","fullName":"东港市","lat":"39.86172","lng":"124.15209","provinceCode":"210000","cityCode":"210600"},{"code":"210682","name":"","fullName":"凤城市","lat":"40.45279","lng":"124.06605","provinceCode":"210000","cityCode":"210600"},{"code":"210702","name":"","fullName":"古塔区","lat":"41.11728","lng":"121.12834","provinceCode":"210000","cityCode":"210700"},{"code":"210703","name":"","fullName":"凌河区","lat":"41.11512","lng":"121.15126","provinceCode":"210000","cityCode":"210700"},{"code":"210711","name":"","fullName":"太和区","lat":"41.10897","lng":"121.10378","provinceCode":"210000","cityCode":"210700"},{"code":"210726","name":"","fullName":"黑山县","lat":"41.69391","lng":"122.12066","provinceCode":"210000","cityCode":"210700"},{"code":"210727","name":"","fullName":"义县","lat":"41.53311","lng":"121.23915","provinceCode":"210000","cityCode":"210700"},{"code":"210781","name":"","fullName":"凌海市","lat":"41.17371","lng":"121.35771","provinceCode":"210000","cityCode":"210700"},{"code":"210782","name":"","fullName":"北镇市","lat":"41.59465","lng":"121.79854","provinceCode":"210000","cityCode":"210700"},{"code":"210802","name":"","fullName":"站前区","lat":"40.67296","lng":"122.25999","provinceCode":"210000","cityCode":"210800"},{"code":"210803","name":"","fullName":"西市区","lat":"40.66629","lng":"122.20646","provinceCode":"210000","cityCode":"210800"},{"code":"210804","name":"","fullName":"鲅鱼圈区","lat":"40.22675","lng":"122.12169","provinceCode":"210000","cityCode":"210800"},{"code":"210811","name":"","fullName":"老边区","lat":"40.68038","lng":"122.37968","provinceCode":"210000","cityCode":"210800"},{"code":"210881","name":"","fullName":"盖州市","lat":"40.40053","lng":"122.3488","provinceCode":"210000","cityCode":"210800"},{"code":"210882","name":"","fullName":"大石桥市","lat":"40.64448","lng":"122.50917","provinceCode":"210000","cityCode":"210800"},{"code":"210902","name":"","fullName":"海州区","lat":"42.01332","lng":"121.65617","provinceCode":"210000","cityCode":"210900"},{"code":"210903","name":"","fullName":"新邱区","lat":"42.08742","lng":"121.79232","provinceCode":"210000","cityCode":"210900"},{"code":"210904","name":"","fullName":"太平区","lat":"42.01072","lng":"121.67865","provinceCode":"210000","cityCode":"210900"},{"code":"210905","name":"","fullName":"清河门区","lat":"41.78306","lng":"121.41614","provinceCode":"210000","cityCode":"210900"},{"code":"210911","name":"","fullName":"细河区","lat":"42.02539","lng":"121.68008","provinceCode":"210000","cityCode":"210900"},{"code":"210921","name":"","fullName":"阜新蒙古族自治县","lat":"42.06514","lng":"121.75791","provinceCode":"210000","cityCode":"210900"},{"code":"210922","name":"","fullName":"彰武县","lat":"42.38649","lng":"122.53889","provinceCode":"210000","cityCode":"210900"},{"code":"211002","name":"","fullName":"白塔区","lat":"41.27031","lng":"123.17424","provinceCode":"210000","cityCode":"211000"},{"code":"211003","name":"","fullName":"文圣区","lat":"41.26776","lng":"123.23699","provinceCode":"210000","cityCode":"211000"},{"code":"211004","name":"","fullName":"宏伟区","lat":"41.21725","lng":"123.19637","provinceCode":"210000","cityCode":"211000"},{"code":"211005","name":"","fullName":"弓长岭区","lat":"41.15171","lng":"123.42052","provinceCode":"210000","cityCode":"211000"},{"code":"211011","name":"","fullName":"太子河区","lat":"41.29225","lng":"123.13278","provinceCode":"210000","cityCode":"211000"},{"code":"211021","name":"","fullName":"辽阳县","lat":"41.20546","lng":"123.10578","provinceCode":"210000","cityCode":"211000"},{"code":"211081","name":"","fullName":"灯塔市","lat":"41.42616","lng":"123.3393","provinceCode":"210000","cityCode":"211000"},{"code":"211102","name":"","fullName":"双台子区","lat":"41.19049","lng":"122.06017","provinceCode":"210000","cityCode":"211100"},{"code":"211103","name":"","fullName":"兴隆台区","lat":"41.13876","lng":"122.10558","provinceCode":"210000","cityCode":"211100"},{"code":"211104","name":"","fullName":"大洼区","lat":"41.00247","lng":"122.08245","provinceCode":"210000","cityCode":"211100"},{"code":"211122","name":"","fullName":"盘山县","lat":"41.24265","lng":"121.9963","provinceCode":"210000","cityCode":"211100"},{"code":"211202","name":"","fullName":"银州区","lat":"42.2862","lng":"123.84241","provinceCode":"210000","cityCode":"211200"},{"code":"211204","name":"","fullName":"清河区","lat":"42.54682","lng":"124.15916","provinceCode":"210000","cityCode":"211200"},{"code":"211221","name":"","fullName":"铁岭县","lat":"42.22284","lng":"123.72783","provinceCode":"210000","cityCode":"211200"},{"code":"211223","name":"","fullName":"西丰县","lat":"42.73835","lng":"124.72734","provinceCode":"210000","cityCode":"211200"},{"code":"211224","name":"","fullName":"昌图县","lat":"42.78613","lng":"124.11092","provinceCode":"210000","cityCode":"211200"},{"code":"211281","name":"","fullName":"调兵山市","lat":"42.46755","lng":"123.5669","provinceCode":"210000","cityCode":"211200"},{"code":"211282","name":"","fullName":"开原市","lat":"42.54645","lng":"124.0382","provinceCode":"210000","cityCode":"211200"},{"code":"211302","name":"","fullName":"双塔区","lat":"41.5657","lng":"120.45372","provinceCode":"210000","cityCode":"211300"},{"code":"211303","name":"","fullName":"龙城区","lat":"41.59973","lng":"120.41555","provinceCode":"210000","cityCode":"211300"},{"code":"211321","name":"","fullName":"朝阳县","lat":"41.36782","lng":"120.29592","provinceCode":"210000","cityCode":"211300"},{"code":"211322","name":"","fullName":"建平县","lat":"41.4032","lng":"119.64396","provinceCode":"210000","cityCode":"211300"},{"code":"211324","name":"","fullName":"喀喇沁左翼蒙古族自治县","lat":"41.12738","lng":"119.74048","provinceCode":"210000","cityCode":"211300"},{"code":"211381","name":"","fullName":"北票市","lat":"41.8008","lng":"120.77091","provinceCode":"210000","cityCode":"211300"},{"code":"211382","name":"","fullName":"凌源市","lat":"41.24548","lng":"119.40134","provinceCode":"210000","cityCode":"211300"},{"code":"211402","name":"","fullName":"连山区","lat":"40.77526","lng":"120.86908","provinceCode":"210000","cityCode":"211400"},{"code":"211403","name":"","fullName":"龙港区","lat":"40.73545","lng":"120.89393","provinceCode":"210000","cityCode":"211400"},{"code":"211404","name":"","fullName":"南票区","lat":"41.10714","lng":"120.74985","provinceCode":"210000","cityCode":"211400"},{"code":"211421","name":"","fullName":"绥中县","lat":"40.32565","lng":"120.34431","provinceCode":"210000","cityCode":"211400"},{"code":"211422","name":"","fullName":"建昌县","lat":"40.82408","lng":"119.83715","provinceCode":"210000","cityCode":"211400"},{"code":"211481","name":"","fullName":"兴城市","lat":"40.61018","lng":"120.75619","provinceCode":"210000","cityCode":"211400"},{"code":"220102","name":"","fullName":"南关区","lat":"43.86414","lng":"125.35043","provinceCode":"220000","cityCode":"220100"},{"code":"220103","name":"","fullName":"宽城区","lat":"43.94288","lng":"125.32615","provinceCode":"220000","cityCode":"220100"},{"code":"220104","name":"","fullName":"朝阳区","lat":"43.83327","lng":"125.28845","provinceCode":"220000","cityCode":"220100"},{"code":"220105","name":"","fullName":"二道区","lat":"43.86497","lng":"125.37427","provinceCode":"220000","cityCode":"220100"},{"code":"220106","name":"","fullName":"绿园区","lat":"43.88041","lng":"125.25606","provinceCode":"220000","cityCode":"220100"},{"code":"220112","name":"","fullName":"双阳区","lat":"43.52503","lng":"125.66464","provinceCode":"220000","cityCode":"220100"},{"code":"220113","name":"","fullName":"九台区","lat":"44.15174","lng":"125.83949","provinceCode":"220000","cityCode":"220100"},{"code":"220122","name":"","fullName":"农安县","lat":"44.43195","lng":"125.18512","provinceCode":"220000","cityCode":"220100"},{"code":"220182","name":"","fullName":"榆树市","lat":"44.83989","lng":"126.533","provinceCode":"220000","cityCode":"220100"},{"code":"220183","name":"","fullName":"德惠市","lat":"44.53709","lng":"125.70558","provinceCode":"220000","cityCode":"220100"},{"code":"220202","name":"","fullName":"昌邑区","lat":"43.88187","lng":"126.57436","provinceCode":"220000","cityCode":"220200"},{"code":"220203","name":"","fullName":"龙潭区","lat":"43.9106","lng":"126.56223","provinceCode":"220000","cityCode":"220200"},{"code":"220204","name":"","fullName":"船营区","lat":"43.83395","lng":"126.54113","provinceCode":"220000","cityCode":"220200"},{"code":"220211","name":"","fullName":"丰满区","lat":"43.82142","lng":"126.56206","provinceCode":"220000","cityCode":"220200"},{"code":"220221","name":"","fullName":"永吉县","lat":"43.67253","lng":"126.49754","provinceCode":"220000","cityCode":"220200"},{"code":"220281","name":"","fullName":"蛟河市","lat":"43.72393","lng":"127.34477","provinceCode":"220000","cityCode":"220200"},{"code":"220282","name":"","fullName":"桦甸市","lat":"42.97208","lng":"126.74627","provinceCode":"220000","cityCode":"220200"},{"code":"220283","name":"","fullName":"舒兰市","lat":"44.40586","lng":"126.96532","provinceCode":"220000","cityCode":"220200"},{"code":"220284","name":"","fullName":"磐石市","lat":"42.94662","lng":"126.06046","provinceCode":"220000","cityCode":"220200"},{"code":"220302","name":"","fullName":"铁西区","lat":"43.14635","lng":"124.34515","provinceCode":"220000","cityCode":"220300"},{"code":"220303","name":"","fullName":"铁东区","lat":"43.16208","lng":"124.40946","provinceCode":"220000","cityCode":"220300"},{"code":"220322","name":"","fullName":"梨树县","lat":"43.30717","lng":"124.33564","provinceCode":"220000","cityCode":"220300"},{"code":"220323","name":"","fullName":"伊通满族自治县","lat":"43.34494","lng":"125.30536","provinceCode":"220000","cityCode":"220300"},{"code":"220381","name":"","fullName":"公主岭市","lat":"43.50468","lng":"124.8228","provinceCode":"220000","cityCode":"220300"},{"code":"220382","name":"","fullName":"双辽市","lat":"43.51845","lng":"123.50296","provinceCode":"220000","cityCode":"220300"},{"code":"220402","name":"","fullName":"龙山区","lat":"42.9015","lng":"125.13682","provinceCode":"220000","cityCode":"220400"},{"code":"220403","name":"","fullName":"西安区","lat":"42.92689","lng":"125.14922","provinceCode":"220000","cityCode":"220400"},{"code":"220421","name":"","fullName":"东丰县","lat":"42.67704","lng":"125.53056","provinceCode":"220000","cityCode":"220400"},{"code":"220422","name":"","fullName":"东辽县","lat":"42.92636","lng":"124.99162","provinceCode":"220000","cityCode":"220400"},{"code":"220502","name":"","fullName":"东昌区","lat":"41.7285","lng":"125.95513","provinceCode":"220000","cityCode":"220500"},{"code":"220503","name":"","fullName":"二道江区","lat":"41.7742","lng":"126.04262","provinceCode":"220000","cityCode":"220500"},{"code":"220521","name":"","fullName":"通化县","lat":"41.67929","lng":"125.7594","provinceCode":"220000","cityCode":"220500"},{"code":"220523","name":"","fullName":"辉南县","lat":"42.68499","lng":"126.04687","provinceCode":"220000","cityCode":"220500"},{"code":"220524","name":"","fullName":"柳河县","lat":"42.2847","lng":"125.74478","provinceCode":"220000","cityCode":"220500"},{"code":"220581","name":"","fullName":"梅河口市","lat":"42.53873","lng":"125.7121","provinceCode":"220000","cityCode":"220500"},{"code":"220582","name":"","fullName":"集安市","lat":"41.12622","lng":"126.19269","provinceCode":"220000","cityCode":"220500"},{"code":"220602","name":"","fullName":"浑江区","lat":"41.94507","lng":"126.417","provinceCode":"220000","cityCode":"220600"},{"code":"220605","name":"","fullName":"江源区","lat":"42.05665","lng":"126.59088","provinceCode":"220000","cityCode":"220600"},{"code":"220621","name":"","fullName":"抚松县","lat":"42.34202","lng":"127.28036","provinceCode":"220000","cityCode":"220600"},{"code":"220622","name":"","fullName":"靖宇县","lat":"42.38872","lng":"126.81329","provinceCode":"220000","cityCode":"220600"},{"code":"220623","name":"","fullName":"长白朝鲜族自治县","lat":"41.41997","lng":"128.2005","provinceCode":"220000","cityCode":"220600"},{"code":"220681","name":"","fullName":"临江市","lat":"41.81193","lng":"126.91798","provinceCode":"220000","cityCode":"220600"},{"code":"220702","name":"","fullName":"宁江区","lat":"45.17185","lng":"124.81698","provinceCode":"220000","cityCode":"220700"},{"code":"220721","name":"","fullName":"前郭尔罗斯蒙古族自治县","lat":"45.1173","lng":"124.82357","provinceCode":"220000","cityCode":"220700"},{"code":"220722","name":"","fullName":"长岭县","lat":"44.27591","lng":"123.9673","provinceCode":"220000","cityCode":"220700"},{"code":"220723","name":"","fullName":"乾安县","lat":"45.00457","lng":"124.02797","provinceCode":"220000","cityCode":"220700"},{"code":"220781","name":"","fullName":"扶余市","lat":"44.99014","lng":"126.04972","provinceCode":"220000","cityCode":"220700"},{"code":"220802","name":"","fullName":"洮北区","lat":"45.6216","lng":"122.85111","provinceCode":"220000","cityCode":"220800"},{"code":"220821","name":"","fullName":"镇赉县","lat":"45.84825","lng":"123.19987","provinceCode":"220000","cityCode":"220800"},{"code":"220822","name":"","fullName":"通榆县","lat":"44.81296","lng":"123.08831","provinceCode":"220000","cityCode":"220800"},{"code":"220881","name":"","fullName":"洮南市","lat":"45.33559","lng":"122.78635","provinceCode":"220000","cityCode":"220800"},{"code":"220882","name":"","fullName":"大安市","lat":"45.50711","lng":"124.29252","provinceCode":"220000","cityCode":"220800"},{"code":"222401","name":"","fullName":"延吉市","lat":"42.89107","lng":"129.5091","provinceCode":"220000","cityCode":"222400"},{"code":"222402","name":"","fullName":"图们市","lat":"42.96805","lng":"129.8439","provinceCode":"220000","cityCode":"222400"},{"code":"222403","name":"","fullName":"敦化市","lat":"43.37278","lng":"128.23109","provinceCode":"220000","cityCode":"222400"},{"code":"222404","name":"","fullName":"珲春市","lat":"42.86249","lng":"130.36577","provinceCode":"220000","cityCode":"222400"},{"code":"222405","name":"","fullName":"龙井市","lat":"42.76587","lng":"129.42641","provinceCode":"220000","cityCode":"222400"},{"code":"222406","name":"","fullName":"和龙市","lat":"42.54641","lng":"129.01079","provinceCode":"220000","cityCode":"222400"},{"code":"222424","name":"","fullName":"汪清县","lat":"43.31281","lng":"129.77125","provinceCode":"220000","cityCode":"222400"},{"code":"222426","name":"","fullName":"安图县","lat":"43.11166","lng":"128.8992","provinceCode":"220000","cityCode":"222400"},{"code":"230102","name":"","fullName":"道里区","lat":"45.75567","lng":"126.61686","provinceCode":"230000","cityCode":"230100"},{"code":"230103","name":"","fullName":"南岗区","lat":"45.76021","lng":"126.66837","provinceCode":"230000","cityCode":"230100"},{"code":"230104","name":"","fullName":"道外区","lat":"45.79201","lng":"126.64932","provinceCode":"230000","cityCode":"230100"},{"code":"230108","name":"","fullName":"平房区","lat":"45.59799","lng":"126.63768","provinceCode":"230000","cityCode":"230100"},{"code":"230109","name":"","fullName":"松北区","lat":"45.80825","lng":"126.56279","provinceCode":"230000","cityCode":"230100"},{"code":"230110","name":"","fullName":"香坊区","lat":"45.70847","lng":"126.66287","provinceCode":"230000","cityCode":"230100"},{"code":"230111","name":"","fullName":"呼兰区","lat":"45.88899","lng":"126.58796","provinceCode":"230000","cityCode":"230100"},{"code":"230112","name":"","fullName":"阿城区","lat":"45.54774","lng":"126.95717","provinceCode":"230000","cityCode":"230100"},{"code":"230113","name":"","fullName":"双城区","lat":"45.38355","lng":"126.31227","provinceCode":"230000","cityCode":"230100"},{"code":"230123","name":"","fullName":"依兰县","lat":"46.32489","lng":"129.56859","provinceCode":"230000","cityCode":"230100"},{"code":"230124","name":"","fullName":"方正县","lat":"45.85253","lng":"128.82707","provinceCode":"230000","cityCode":"230100"},{"code":"230125","name":"","fullName":"宾县","lat":"45.75864","lng":"127.48586","provinceCode":"230000","cityCode":"230100"},{"code":"230126","name":"","fullName":"巴彦县","lat":"46.08536","lng":"127.4035","provinceCode":"230000","cityCode":"230100"},{"code":"230127","name":"","fullName":"木兰县","lat":"45.95038","lng":"128.04392","provinceCode":"230000","cityCode":"230100"},{"code":"230128","name":"","fullName":"通河县","lat":"45.9901","lng":"128.74607","provinceCode":"230000","cityCode":"230100"},{"code":"230129","name":"","fullName":"延寿县","lat":"45.4519","lng":"128.33162","provinceCode":"230000","cityCode":"230100"},{"code":"230183","name":"","fullName":"尚志市","lat":"45.21102","lng":"127.96027","provinceCode":"230000","cityCode":"230100"},{"code":"230184","name":"","fullName":"五常市","lat":"44.93191","lng":"127.16746","provinceCode":"230000","cityCode":"230100"},{"code":"230202","name":"","fullName":"龙沙区","lat":"47.31742","lng":"123.95763","provinceCode":"230000","cityCode":"230200"},{"code":"230203","name":"","fullName":"建华区","lat":"47.35434","lng":"123.95546","provinceCode":"230000","cityCode":"230200"},{"code":"230204","name":"","fullName":"铁锋区","lat":"47.34076","lng":"123.97807","provinceCode":"230000","cityCode":"230200"},{"code":"230205","name":"","fullName":"昂昂溪区","lat":"47.15517","lng":"123.82234","provinceCode":"230000","cityCode":"230200"},{"code":"230206","name":"","fullName":"富拉尔基区","lat":"47.2089","lng":"123.62937","provinceCode":"230000","cityCode":"230200"},{"code":"230207","name":"","fullName":"碾子山区","lat":"47.51698","lng":"122.88777","provinceCode":"230000","cityCode":"230200"},{"code":"230208","name":"","fullName":"梅里斯达斡尔族区","lat":"47.3095","lng":"123.75281","provinceCode":"230000","cityCode":"230200"},{"code":"230221","name":"","fullName":"龙江县","lat":"47.33737","lng":"123.20483","provinceCode":"230000","cityCode":"230200"},{"code":"230223","name":"","fullName":"依安县","lat":"47.89349","lng":"125.30621","provinceCode":"230000","cityCode":"230200"},{"code":"230224","name":"","fullName":"泰来县","lat":"46.39389","lng":"123.41738","provinceCode":"230000","cityCode":"230200"},{"code":"230225","name":"","fullName":"甘南县","lat":"47.92037","lng":"123.50624","provinceCode":"230000","cityCode":"230200"},{"code":"230227","name":"","fullName":"富裕县","lat":"47.77533","lng":"124.47387","provinceCode":"230000","cityCode":"230200"},{"code":"230229","name":"","fullName":"克山县","lat":"48.03694","lng":"125.87561","provinceCode":"230000","cityCode":"230200"},{"code":"230230","name":"","fullName":"克东县","lat":"48.04167","lng":"126.24871","provinceCode":"230000","cityCode":"230200"},{"code":"230231","name":"","fullName":"拜泉县","lat":"47.59569","lng":"126.10005","provinceCode":"230000","cityCode":"230200"},{"code":"230281","name":"","fullName":"讷河市","lat":"48.48419","lng":"124.88397","provinceCode":"230000","cityCode":"230200"},{"code":"230302","name":"","fullName":"鸡冠区","lat":"45.30412","lng":"130.98084","provinceCode":"230000","cityCode":"230300"},{"code":"230303","name":"","fullName":"恒山区","lat":"45.21072","lng":"130.90499","provinceCode":"230000","cityCode":"230300"},{"code":"230304","name":"","fullName":"滴道区","lat":"45.34872","lng":"130.84367","provinceCode":"230000","cityCode":"230300"},{"code":"230305","name":"","fullName":"梨树区","lat":"45.09203","lng":"130.69708","provinceCode":"230000","cityCode":"230300"},{"code":"230306","name":"","fullName":"城子河区","lat":"45.33693","lng":"131.01136","provinceCode":"230000","cityCode":"230300"},{"code":"230307","name":"","fullName":"麻山区","lat":"45.21213","lng":"130.47817","provinceCode":"230000","cityCode":"230300"},{"code":"230321","name":"","fullName":"鸡东县","lat":"45.26002","lng":"131.12408","provinceCode":"230000","cityCode":"230300"},{"code":"230381","name":"","fullName":"虎林市","lat":"45.76267","lng":"132.93695","provinceCode":"230000","cityCode":"230300"},{"code":"230382","name":"","fullName":"密山市","lat":"45.52975","lng":"131.84631","provinceCode":"230000","cityCode":"230300"},{"code":"230402","name":"","fullName":"向阳区","lat":"47.34254","lng":"130.2943","provinceCode":"230000","cityCode":"230400"},{"code":"230403","name":"","fullName":"工农区","lat":"47.31872","lng":"130.27482","provinceCode":"230000","cityCode":"230400"},{"code":"230404","name":"","fullName":"南山区","lat":"47.31506","lng":"130.28714","provinceCode":"230000","cityCode":"230400"},{"code":"230405","name":"","fullName":"兴安区","lat":"47.25286","lng":"130.23924","provinceCode":"230000","cityCode":"230400"},{"code":"230406","name":"","fullName":"东山区","lat":"47.33872","lng":"130.31755","provinceCode":"230000","cityCode":"230400"},{"code":"230407","name":"","fullName":"兴山区","lat":"47.3846","lng":"130.33302","provinceCode":"230000","cityCode":"230400"},{"code":"230421","name":"","fullName":"萝北县","lat":"47.57752","lng":"130.8286","provinceCode":"230000","cityCode":"230400"},{"code":"230422","name":"","fullName":"绥滨县","lat":"47.28906","lng":"131.85224","provinceCode":"230000","cityCode":"230400"},{"code":"230502","name":"","fullName":"尖山区","lat":"46.64618","lng":"131.1584","provinceCode":"230000","cityCode":"230500"},{"code":"230503","name":"","fullName":"岭东区","lat":"46.54464","lng":"131.15214","provinceCode":"230000","cityCode":"230500"},{"code":"230505","name":"","fullName":"四方台区","lat":"46.59426","lng":"131.33446","provinceCode":"230000","cityCode":"230500"},{"code":"230506","name":"","fullName":"宝山区","lat":"46.57727","lng":"131.40178","provinceCode":"230000","cityCode":"230500"},{"code":"230521","name":"","fullName":"集贤县","lat":"46.72844","lng":"131.14115","provinceCode":"230000","cityCode":"230500"},{"code":"230522","name":"","fullName":"友谊县","lat":"46.76743","lng":"131.80795","provinceCode":"230000","cityCode":"230500"},{"code":"230523","name":"","fullName":"宝清县","lat":"46.32695","lng":"132.19708","provinceCode":"230000","cityCode":"230500"},{"code":"230524","name":"","fullName":"饶河县","lat":"46.7982","lng":"134.01324","provinceCode":"230000","cityCode":"230500"},{"code":"230602","name":"","fullName":"萨尔图区","lat":"46.60302","lng":"125.05422","provinceCode":"230000","cityCode":"230600"},{"code":"230603","name":"","fullName":"龙凤区","lat":"46.56182","lng":"125.13415","provinceCode":"230000","cityCode":"230600"},{"code":"230604","name":"","fullName":"让胡路区","lat":"46.65225","lng":"124.87083","provinceCode":"230000","cityCode":"230600"},{"code":"230605","name":"","fullName":"红岗区","lat":"46.39818","lng":"124.89082","provinceCode":"230000","cityCode":"230600"},{"code":"230606","name":"","fullName":"大同区","lat":"46.03904","lng":"124.81056","provinceCode":"230000","cityCode":"230600"},{"code":"230621","name":"","fullName":"肇州县","lat":"45.69886","lng":"125.26859","provinceCode":"230000","cityCode":"230600"},{"code":"230622","name":"","fullName":"肇源县","lat":"45.5183","lng":"125.07795","provinceCode":"230000","cityCode":"230600"},{"code":"230623","name":"","fullName":"林甸县","lat":"47.18298","lng":"124.8713","provinceCode":"230000","cityCode":"230600"},{"code":"230624","name":"","fullName":"杜尔伯特蒙古族自治县","lat":"46.86231","lng":"124.44278","provinceCode":"230000","cityCode":"230600"},{"code":"230702","name":"","fullName":"伊春区","lat":"47.72798","lng":"128.90743","provinceCode":"230000","cityCode":"230700"},{"code":"230703","name":"","fullName":"南岔区","lat":"47.13799","lng":"129.28365","provinceCode":"230000","cityCode":"230700"},{"code":"230704","name":"","fullName":"友好区","lat":"47.8538","lng":"128.84071","provinceCode":"230000","cityCode":"230700"},{"code":"230705","name":"","fullName":"西林区","lat":"47.48081","lng":"129.31286","provinceCode":"230000","cityCode":"230700"},{"code":"230706","name":"","fullName":"翠峦区","lat":"47.72582","lng":"128.669","provinceCode":"230000","cityCode":"230700"},{"code":"230707","name":"","fullName":"新青区","lat":"48.29045","lng":"129.53362","provinceCode":"230000","cityCode":"230700"},{"code":"230708","name":"","fullName":"美溪区","lat":"47.63508","lng":"129.12925","provinceCode":"230000","cityCode":"230700"},{"code":"230709","name":"","fullName":"金山屯区","lat":"47.41303","lng":"129.42899","provinceCode":"230000","cityCode":"230700"},{"code":"230710","name":"","fullName":"五营区","lat":"48.10802","lng":"129.24536","provinceCode":"230000","cityCode":"230700"},{"code":"230711","name":"","fullName":"乌马河区","lat":"47.72669","lng":"128.80019","provinceCode":"230000","cityCode":"230700"},{"code":"230712","name":"","fullName":"汤旺河区","lat":"48.45469","lng":"129.57097","provinceCode":"230000","cityCode":"230700"},{"code":"230713","name":"","fullName":"带岭区","lat":"47.02834","lng":"129.02057","provinceCode":"230000","cityCode":"230700"},{"code":"230714","name":"","fullName":"乌伊岭区","lat":"48.59057","lng":"129.43773","provinceCode":"230000","cityCode":"230700"},{"code":"230715","name":"","fullName":"红星区","lat":"48.23941","lng":"129.39081","provinceCode":"230000","cityCode":"230700"},{"code":"230716","name":"","fullName":"上甘岭区","lat":"47.97469","lng":"129.02439","provinceCode":"230000","cityCode":"230700"},{"code":"230722","name":"","fullName":"嘉荫县","lat":"48.88942","lng":"130.40308","provinceCode":"230000","cityCode":"230700"},{"code":"230781","name":"","fullName":"铁力市","lat":"46.98664","lng":"128.03243","provinceCode":"230000","cityCode":"230700"},{"code":"230803","name":"","fullName":"向阳区","lat":"46.80774","lng":"130.36547","provinceCode":"230000","cityCode":"230800"},{"code":"230804","name":"","fullName":"前进区","lat":"46.81409","lng":"130.37525","provinceCode":"230000","cityCode":"230800"},{"code":"230805","name":"","fullName":"东风区","lat":"46.82252","lng":"130.40368","provinceCode":"230000","cityCode":"230800"},{"code":"230811","name":"","fullName":"郊区","lat":"46.80975","lng":"130.32707","provinceCode":"230000","cityCode":"230800"},{"code":"230822","name":"","fullName":"桦南县","lat":"46.23925","lng":"130.55366","provinceCode":"230000","cityCode":"230800"},{"code":"230826","name":"","fullName":"桦川县","lat":"47.023","lng":"130.71898","provinceCode":"230000","cityCode":"230800"},{"code":"230828","name":"","fullName":"汤原县","lat":"46.73068","lng":"129.90495","provinceCode":"230000","cityCode":"230800"},{"code":"230881","name":"","fullName":"同江市","lat":"47.64213","lng":"132.51101","provinceCode":"230000","cityCode":"230800"},{"code":"230882","name":"","fullName":"富锦市","lat":"47.25022","lng":"132.03728","provinceCode":"230000","cityCode":"230800"},{"code":"230883","name":"","fullName":"抚远市","lat":"48.36485","lng":"134.30795","provinceCode":"230000","cityCode":"230800"},{"code":"230902","name":"","fullName":"新兴区","lat":"45.81597","lng":"130.9321","provinceCode":"230000","cityCode":"230900"},{"code":"230903","name":"","fullName":"桃山区","lat":"45.76554","lng":"131.02","provinceCode":"230000","cityCode":"230900"},{"code":"230904","name":"","fullName":"茄子河区","lat":"45.78487","lng":"131.06693","provinceCode":"230000","cityCode":"230900"},{"code":"230921","name":"","fullName":"勃利县","lat":"45.75506","lng":"130.59144","provinceCode":"230000","cityCode":"230900"},{"code":"231002","name":"","fullName":"东安区","lat":"44.58122","lng":"129.62672","provinceCode":"230000","cityCode":"231000"},{"code":"231003","name":"","fullName":"阳明区","lat":"44.5963","lng":"129.63559","provinceCode":"230000","cityCode":"231000"},{"code":"231004","name":"","fullName":"爱民区","lat":"44.59608","lng":"129.59176","provinceCode":"230000","cityCode":"231000"},{"code":"231005","name":"","fullName":"西安区","lat":"44.5775","lng":"129.6161","provinceCode":"230000","cityCode":"231000"},{"code":"231025","name":"","fullName":"林口县","lat":"45.27782","lng":"130.28315","provinceCode":"230000","cityCode":"231000"},{"code":"231081","name":"","fullName":"绥芬河市","lat":"44.4132","lng":"131.15012","provinceCode":"230000","cityCode":"231000"},{"code":"231083","name":"","fullName":"海林市","lat":"44.59378","lng":"129.38064","provinceCode":"230000","cityCode":"231000"},{"code":"231084","name":"","fullName":"宁安市","lat":"44.34018","lng":"129.4828","provinceCode":"230000","cityCode":"231000"},{"code":"231085","name":"","fullName":"穆棱市","lat":"44.91883","lng":"130.52468","provinceCode":"230000","cityCode":"231000"},{"code":"231086","name":"","fullName":"东宁市","lat":"44.08694","lng":"131.12463","provinceCode":"230000","cityCode":"231000"},{"code":"231102","name":"","fullName":"爱辉区","lat":"50.2521","lng":"127.50048","provinceCode":"230000","cityCode":"231100"},{"code":"231121","name":"","fullName":"嫩江县","lat":"49.18572","lng":"125.22094","provinceCode":"230000","cityCode":"231100"},{"code":"231123","name":"","fullName":"逊克县","lat":"49.56437","lng":"128.47871","provinceCode":"230000","cityCode":"231100"},{"code":"231124","name":"","fullName":"孙吴县","lat":"49.42543","lng":"127.33605","provinceCode":"230000","cityCode":"231100"},{"code":"231181","name":"","fullName":"北安市","lat":"48.24146","lng":"126.49108","provinceCode":"230000","cityCode":"231100"},{"code":"231182","name":"","fullName":"五大连池市","lat":"48.51649","lng":"126.20451","provinceCode":"230000","cityCode":"231100"},{"code":"231202","name":"","fullName":"北林区","lat":"46.6373","lng":"126.98566","provinceCode":"230000","cityCode":"231200"},{"code":"231221","name":"","fullName":"望奎县","lat":"46.83281","lng":"126.48602","provinceCode":"230000","cityCode":"231200"},{"code":"231222","name":"","fullName":"兰西县","lat":"46.25241","lng":"126.28788","provinceCode":"230000","cityCode":"231200"},{"code":"231223","name":"","fullName":"青冈县","lat":"46.68966","lng":"126.11387","provinceCode":"230000","cityCode":"231200"},{"code":"231224","name":"","fullName":"庆安县","lat":"46.8802","lng":"127.50758","provinceCode":"230000","cityCode":"231200"},{"code":"231225","name":"","fullName":"明水县","lat":"47.17332","lng":"125.906","provinceCode":"230000","cityCode":"231200"},{"code":"231226","name":"","fullName":"绥棱县","lat":"47.23609","lng":"127.11478","provinceCode":"230000","cityCode":"231200"},{"code":"231281","name":"","fullName":"安达市","lat":"46.41773","lng":"125.34379","provinceCode":"230000","cityCode":"231200"},{"code":"231282","name":"","fullName":"肇东市","lat":"46.05121","lng":"125.9625","provinceCode":"230000","cityCode":"231200"},{"code":"231283","name":"","fullName":"海伦市","lat":"47.4621","lng":"126.97338","provinceCode":"230000","cityCode":"231200"},{"code":"232701","name":"","fullName":"漠河市","lat":"52.97209","lng":"122.53864","provinceCode":"230000","cityCode":"232700"},{"code":"232721","name":"","fullName":"呼玛县","lat":"51.72606","lng":"126.65291","provinceCode":"230000","cityCode":"232700"},{"code":"232722","name":"","fullName":"塔河县","lat":"52.33432","lng":"124.71003","provinceCode":"230000","cityCode":"232700"},{"code":"320102","name":"","fullName":"玄武区","lat":"32.04835","lng":"118.79809","provinceCode":"320000","cityCode":"320100"},{"code":"320104","name":"","fullName":"秦淮区","lat":"32.03899","lng":"118.7945","provinceCode":"320000","cityCode":"320100"},{"code":"320105","name":"","fullName":"建邺区","lat":"32.00335","lng":"118.73145","provinceCode":"320000","cityCode":"320100"},{"code":"320106","name":"","fullName":"鼓楼区","lat":"32.06639","lng":"118.77013","provinceCode":"320000","cityCode":"320100"},{"code":"320111","name":"","fullName":"浦口区","lat":"32.059","lng":"118.62841","provinceCode":"320000","cityCode":"320100"},{"code":"320113","name":"","fullName":"栖霞区","lat":"32.09636","lng":"118.90907","provinceCode":"320000","cityCode":"320100"},{"code":"320114","name":"","fullName":"雨花台区","lat":"31.99226","lng":"118.7787","provinceCode":"320000","cityCode":"320100"},{"code":"320115","name":"","fullName":"江宁区","lat":"31.95266","lng":"118.84002","provinceCode":"320000","cityCode":"320100"},{"code":"320116","name":"","fullName":"六合区","lat":"32.32222","lng":"118.82155","provinceCode":"320000","cityCode":"320100"},{"code":"320117","name":"","fullName":"溧水区","lat":"31.651","lng":"119.0284","provinceCode":"320000","cityCode":"320100"},{"code":"320118","name":"","fullName":"高淳区","lat":"31.32751","lng":"118.8921","provinceCode":"320000","cityCode":"320100"},{"code":"320205","name":"","fullName":"锡山区","lat":"31.58849","lng":"120.35761","provinceCode":"320000","cityCode":"320200"},{"code":"320206","name":"","fullName":"惠山区","lat":"31.68096","lng":"120.29834","provinceCode":"320000","cityCode":"320200"},{"code":"320211","name":"","fullName":"滨湖区","lat":"31.52853","lng":"120.28429","provinceCode":"320000","cityCode":"320200"},{"code":"320213","name":"","fullName":"梁溪区","lat":"31.56597","lng":"120.30297","provinceCode":"320000","cityCode":"320200"},{"code":"320214","name":"","fullName":"新吴区","lat":"31.49055","lng":"120.36434","provinceCode":"320000","cityCode":"320200"},{"code":"320281","name":"","fullName":"江阴市","lat":"31.91919","lng":"120.28432","provinceCode":"320000","cityCode":"320200"},{"code":"320282","name":"","fullName":"宜兴市","lat":"31.34042","lng":"119.82346","provinceCode":"320000","cityCode":"320200"},{"code":"320302","name":"","fullName":"鼓楼区","lat":"34.28823","lng":"117.18554","provinceCode":"320000","cityCode":"320300"},{"code":"320303","name":"","fullName":"云龙区","lat":"34.25306","lng":"117.25147","provinceCode":"320000","cityCode":"320300"},{"code":"320305","name":"","fullName":"贾汪区","lat":"34.44308","lng":"117.45353","provinceCode":"320000","cityCode":"320300"},{"code":"320311","name":"","fullName":"泉山区","lat":"34.22565","lng":"117.19425","provinceCode":"320000","cityCode":"320300"},{"code":"320312","name":"","fullName":"铜山区","lat":"34.18044","lng":"117.16898","provinceCode":"320000","cityCode":"320300"},{"code":"320321","name":"","fullName":"丰县","lat":"34.69396","lng":"116.59532","provinceCode":"320000","cityCode":"320300"},{"code":"320322","name":"","fullName":"沛县","lat":"34.72166","lng":"116.9375","provinceCode":"320000","cityCode":"320300"},{"code":"320324","name":"","fullName":"睢宁县","lat":"33.91274","lng":"117.94108","provinceCode":"320000","cityCode":"320300"},{"code":"320381","name":"","fullName":"新沂市","lat":"34.36927","lng":"118.35548","provinceCode":"320000","cityCode":"320300"},{"code":"320382","name":"","fullName":"邳州市","lat":"34.3352","lng":"118.01246","provinceCode":"320000","cityCode":"320300"},{"code":"320402","name":"","fullName":"天宁区","lat":"31.77973","lng":"119.97472","provinceCode":"320000","cityCode":"320400"},{"code":"320404","name":"","fullName":"钟楼区","lat":"31.80164","lng":"119.90143","provinceCode":"320000","cityCode":"320400"},{"code":"320411","name":"","fullName":"新北区","lat":"31.83052","lng":"119.97147","provinceCode":"320000","cityCode":"320400"},{"code":"320412","name":"","fullName":"武进区","lat":"31.70165","lng":"119.94311","provinceCode":"320000","cityCode":"320400"},{"code":"320413","name":"","fullName":"金坛区","lat":"31.72322","lng":"119.59794","provinceCode":"320000","cityCode":"320400"},{"code":"320481","name":"","fullName":"溧阳市","lat":"31.41586","lng":"119.4846","provinceCode":"320000","cityCode":"320400"},{"code":"320505","name":"","fullName":"虎丘区","lat":"31.29579","lng":"120.57186","provinceCode":"320000","cityCode":"320500"},{"code":"320506","name":"","fullName":"吴中区","lat":"31.26249","lng":"120.63212","provinceCode":"320000","cityCode":"320500"},{"code":"320507","name":"","fullName":"相城区","lat":"31.36897","lng":"120.64247","provinceCode":"320000","cityCode":"320500"},{"code":"320508","name":"","fullName":"姑苏区","lat":"31.30227","lng":"120.63132","provinceCode":"320000","cityCode":"320500"},{"code":"320509","name":"","fullName":"吴江区","lat":"31.13914","lng":"120.64517","provinceCode":"320000","cityCode":"320500"},{"code":"320581","name":"","fullName":"常熟市","lat":"31.65381","lng":"120.75224","provinceCode":"320000","cityCode":"320500"},{"code":"320582","name":"","fullName":"张家港市","lat":"31.87547","lng":"120.5555","provinceCode":"320000","cityCode":"320500"},{"code":"320583","name":"","fullName":"昆山市","lat":"31.38475","lng":"120.98181","provinceCode":"320000","cityCode":"320500"},{"code":"320585","name":"","fullName":"太仓市","lat":"31.45911","lng":"121.12975","provinceCode":"320000","cityCode":"320500"},{"code":"320602","name":"","fullName":"崇川区","lat":"32.00986","lng":"120.85737","provinceCode":"320000","cityCode":"320600"},{"code":"320611","name":"","fullName":"港闸区","lat":"32.03141","lng":"120.81813","provinceCode":"320000","cityCode":"320600"},{"code":"320612","name":"","fullName":"通州区","lat":"32.06764","lng":"121.07299","provinceCode":"320000","cityCode":"320600"},{"code":"320623","name":"","fullName":"如东县","lat":"32.32956","lng":"121.18502","provinceCode":"320000","cityCode":"320600"},{"code":"320681","name":"","fullName":"启东市","lat":"31.80805","lng":"121.65787","provinceCode":"320000","cityCode":"320600"},{"code":"320682","name":"","fullName":"如皋市","lat":"32.3716","lng":"120.57382","provinceCode":"320000","cityCode":"320600"},{"code":"320684","name":"","fullName":"海门市","lat":"31.87165","lng":"121.18179","provinceCode":"320000","cityCode":"320600"},{"code":"320685","name":"","fullName":"海安市","lat":"32.53308","lng":"120.46759","provinceCode":"320000","cityCode":"320600"},{"code":"320703","name":"","fullName":"连云区","lat":"34.75974","lng":"119.33894","provinceCode":"320000","cityCode":"320700"},{"code":"320706","name":"","fullName":"海州区","lat":"34.57203","lng":"119.16348","provinceCode":"320000","cityCode":"320700"},{"code":"320707","name":"","fullName":"赣榆区","lat":"34.84065","lng":"119.1773","provinceCode":"320000","cityCode":"320700"},{"code":"320722","name":"","fullName":"东海县","lat":"34.54216","lng":"118.77147","provinceCode":"320000","cityCode":"320700"},{"code":"320723","name":"","fullName":"灌云县","lat":"34.28407","lng":"119.24096","provinceCode":"320000","cityCode":"320700"},{"code":"320724","name":"","fullName":"灌南县","lat":"34.08673","lng":"119.31563","provinceCode":"320000","cityCode":"320700"},{"code":"320803","name":"","fullName":"淮安区","lat":"33.50306","lng":"119.14108","provinceCode":"320000","cityCode":"320800"},{"code":"320804","name":"","fullName":"淮阴区","lat":"33.63175","lng":"119.0349","provinceCode":"320000","cityCode":"320800"},{"code":"320812","name":"","fullName":"清江浦区","lat":"33.55308","lng":"119.02662","provinceCode":"320000","cityCode":"320800"},{"code":"320813","name":"","fullName":"洪泽区","lat":"33.29433","lng":"118.8735","provinceCode":"320000","cityCode":"320800"},{"code":"320826","name":"","fullName":"涟水县","lat":"33.78098","lng":"119.26089","provinceCode":"320000","cityCode":"320800"},{"code":"320830","name":"","fullName":"盱眙县","lat":"33.01089","lng":"118.54499","provinceCode":"320000","cityCode":"320800"},{"code":"320831","name":"","fullName":"金湖县","lat":"33.02359","lng":"119.02043","provinceCode":"320000","cityCode":"320800"},{"code":"320902","name":"","fullName":"亭湖区","lat":"33.38893","lng":"120.1953","provinceCode":"320000","cityCode":"320900"},{"code":"320903","name":"","fullName":"盐都区","lat":"33.33732","lng":"120.15448","provinceCode":"320000","cityCode":"320900"},{"code":"320904","name":"","fullName":"大丰区","lat":"33.20107","lng":"120.50102","provinceCode":"320000","cityCode":"320900"},{"code":"320921","name":"","fullName":"响水县","lat":"34.19919","lng":"119.57839","provinceCode":"320000","cityCode":"320900"},{"code":"320922","name":"","fullName":"滨海县","lat":"33.98975","lng":"119.82064","provinceCode":"320000","cityCode":"320900"},{"code":"320923","name":"","fullName":"阜宁县","lat":"33.75931","lng":"119.80258","provinceCode":"320000","cityCode":"320900"},{"code":"320924","name":"","fullName":"射阳县","lat":"33.77496","lng":"120.25815","provinceCode":"320000","cityCode":"320900"},{"code":"320925","name":"","fullName":"建湖县","lat":"33.46406","lng":"119.79858","provinceCode":"320000","cityCode":"320900"},{"code":"320981","name":"","fullName":"东台市","lat":"32.86695","lng":"120.3205","provinceCode":"320000","cityCode":"320900"},{"code":"321002","name":"","fullName":"广陵区","lat":"32.39463","lng":"119.43157","provinceCode":"320000","cityCode":"321000"},{"code":"321003","name":"","fullName":"邗江区","lat":"32.37654","lng":"119.39823","provinceCode":"320000","cityCode":"321000"},{"code":"321012","name":"","fullName":"江都区","lat":"32.43458","lng":"119.57006","provinceCode":"320000","cityCode":"321000"},{"code":"321023","name":"","fullName":"宝应县","lat":"33.24142","lng":"119.35841","provinceCode":"320000","cityCode":"321000"},{"code":"321081","name":"","fullName":"仪征市","lat":"32.27203","lng":"119.18444","provinceCode":"320000","cityCode":"321000"},{"code":"321084","name":"","fullName":"高邮市","lat":"32.78112","lng":"119.45558","provinceCode":"320000","cityCode":"321000"},{"code":"321102","name":"","fullName":"京口区","lat":"32.19811","lng":"119.46962","provinceCode":"320000","cityCode":"321100"},{"code":"321111","name":"","fullName":"润州区","lat":"32.19525","lng":"119.41217","provinceCode":"320000","cityCode":"321100"},{"code":"321112","name":"","fullName":"丹徒区","lat":"32.13188","lng":"119.43396","provinceCode":"320000","cityCode":"321100"},{"code":"321181","name":"","fullName":"丹阳市","lat":"32.00945","lng":"119.60694","provinceCode":"320000","cityCode":"321100"},{"code":"321182","name":"","fullName":"扬中市","lat":"32.23702","lng":"119.79682","provinceCode":"320000","cityCode":"321100"},{"code":"321183","name":"","fullName":"句容市","lat":"31.94482","lng":"119.16864","provinceCode":"320000","cityCode":"321100"},{"code":"321202","name":"","fullName":"海陵区","lat":"32.49098","lng":"119.91956","provinceCode":"320000","cityCode":"321200"},{"code":"321203","name":"","fullName":"高港区","lat":"32.31841","lng":"119.88116","provinceCode":"320000","cityCode":"321200"},{"code":"321204","name":"","fullName":"姜堰区","lat":"32.50879","lng":"120.12673","provinceCode":"320000","cityCode":"321200"},{"code":"321281","name":"","fullName":"兴化市","lat":"32.91041","lng":"119.85272","provinceCode":"320000","cityCode":"321200"},{"code":"321282","name":"","fullName":"靖江市","lat":"32.01494","lng":"120.27454","provinceCode":"320000","cityCode":"321200"},{"code":"321283","name":"","fullName":"泰兴市","lat":"32.17191","lng":"120.052","provinceCode":"320000","cityCode":"321200"},{"code":"321302","name":"","fullName":"宿城区","lat":"33.96271","lng":"118.24239","provinceCode":"320000","cityCode":"321300"},{"code":"321311","name":"","fullName":"宿豫区","lat":"33.94686","lng":"118.33066","provinceCode":"320000","cityCode":"321300"},{"code":"321322","name":"","fullName":"沭阳县","lat":"34.11215","lng":"118.80406","provinceCode":"320000","cityCode":"321300"},{"code":"321323","name":"","fullName":"泗阳县","lat":"33.72101","lng":"118.70335","provinceCode":"320000","cityCode":"321300"},{"code":"321324","name":"","fullName":"泗洪县","lat":"33.459","lng":"118.21624","provinceCode":"320000","cityCode":"321300"},{"code":"330102","name":"","fullName":"上城区","lat":"30.24259","lng":"120.16929","provinceCode":"330000","cityCode":"330100"},{"code":"330103","name":"","fullName":"下城区","lat":"30.28122","lng":"120.18117","provinceCode":"330000","cityCode":"330100"},{"code":"330104","name":"","fullName":"江干区","lat":"30.25727","lng":"120.20523","provinceCode":"330000","cityCode":"330100"},{"code":"330105","name":"","fullName":"拱墅区","lat":"30.31974","lng":"120.1421","provinceCode":"330000","cityCode":"330100"},{"code":"330106","name":"","fullName":"西湖区","lat":"30.25961","lng":"120.13026","provinceCode":"330000","cityCode":"330100"},{"code":"330108","name":"","fullName":"滨江区","lat":"30.2084","lng":"120.21201","provinceCode":"330000","cityCode":"330100"},{"code":"330109","name":"","fullName":"萧山区","lat":"30.18534","lng":"120.26457","provinceCode":"330000","cityCode":"330100"},{"code":"330110","name":"","fullName":"余杭区","lat":"30.41875","lng":"120.2985","provinceCode":"330000","cityCode":"330100"},{"code":"330111","name":"","fullName":"富阳区","lat":"30.04885","lng":"119.96043","provinceCode":"330000","cityCode":"330100"},{"code":"330112","name":"","fullName":"临安区","lat":"30.23383","lng":"119.7248","provinceCode":"330000","cityCode":"330100"},{"code":"330122","name":"","fullName":"桐庐县","lat":"29.79317","lng":"119.6915","provinceCode":"330000","cityCode":"330100"},{"code":"330127","name":"","fullName":"淳安县","lat":"29.60886","lng":"119.04207","provinceCode":"330000","cityCode":"330100"},{"code":"330182","name":"","fullName":"建德市","lat":"29.47475","lng":"119.28121","provinceCode":"330000","cityCode":"330100"},{"code":"330203","name":"","fullName":"海曙区","lat":"29.85957","lng":"121.55084","provinceCode":"330000","cityCode":"330200"},{"code":"330205","name":"","fullName":"江北区","lat":"29.88615","lng":"121.55468","provinceCode":"330000","cityCode":"330200"},{"code":"330206","name":"","fullName":"北仑区","lat":"29.89889","lng":"121.84431","provinceCode":"330000","cityCode":"330200"},{"code":"330211","name":"","fullName":"镇海区","lat":"29.94899","lng":"121.71624","provinceCode":"330000","cityCode":"330200"},{"code":"330212","name":"","fullName":"鄞州区","lat":"29.8172","lng":"121.547","provinceCode":"330000","cityCode":"330200"},{"code":"330213","name":"","fullName":"奉化区","lat":"29.65503","lng":"121.40686","provinceCode":"330000","cityCode":"330200"},{"code":"330225","name":"","fullName":"象山县","lat":"29.47665","lng":"121.86932","provinceCode":"330000","cityCode":"330200"},{"code":"330226","name":"","fullName":"宁海县","lat":"29.28807","lng":"121.42961","provinceCode":"330000","cityCode":"330200"},{"code":"330281","name":"","fullName":"余姚市","lat":"30.03711","lng":"121.15435","provinceCode":"330000","cityCode":"330200"},{"code":"330282","name":"","fullName":"慈溪市","lat":"30.16964","lng":"121.26647","provinceCode":"330000","cityCode":"330200"},{"code":"330302","name":"","fullName":"鹿城区","lat":"28.01469","lng":"120.65523","provinceCode":"330000","cityCode":"330300"},{"code":"330303","name":"","fullName":"龙湾区","lat":"27.93252","lng":"120.81303","provinceCode":"330000","cityCode":"330300"},{"code":"330304","name":"","fullName":"瓯海区","lat":"28.00708","lng":"120.63768","provinceCode":"330000","cityCode":"330300"},{"code":"330305","name":"","fullName":"洞头区","lat":"27.83616","lng":"121.1572","provinceCode":"330000","cityCode":"330300"},{"code":"330324","name":"","fullName":"永嘉县","lat":"28.15336","lng":"120.69171","provinceCode":"330000","cityCode":"330300"},{"code":"330326","name":"","fullName":"平阳县","lat":"27.6621","lng":"120.56595","provinceCode":"330000","cityCode":"330300"},{"code":"330327","name":"","fullName":"苍南县","lat":"27.51743","lng":"120.42631","provinceCode":"330000","cityCode":"330300"},{"code":"330328","name":"","fullName":"文成县","lat":"27.78712","lng":"120.09137","provinceCode":"330000","cityCode":"330300"},{"code":"330329","name":"","fullName":"泰顺县","lat":"27.55639","lng":"119.7175","provinceCode":"330000","cityCode":"330300"},